{"type": "FeatureCollection","features": [{"type":"Feature","properties": {"InitiativeTitle": "TIGER Grants","LocationDisplay": "17 Mile Road","NumberOfProjects": 1,"id": 632},"popupTemplate": "<strong>{InitiativeTitle}</strong><BR>{LocationDisplay}","geometry":{"type": "Point", "coordinates": [-108.634214, 42.924722]}},{"type":"Feature","properties": {"InitiativeTitle": "TIGER Grants","LocationDisplay": "18th Street Viaduct Planning Project","NumberOfProjects": 1,"id": 808},"popupTemplate": "<strong>{InitiativeTitle}</strong><BR>{LocationDisplay}","geometry":{"type": "Point", "coordinates": [-96.393464, 42.504993]}},{"type":"Feature","properties": {"InitiativeTitle": "TIGER Grants","LocationDisplay": "57/60 Confluence Freight Corridor Project","NumberOfProjects": 1,"id": 767},"popupTemplate": "<strong>{InitiativeTitle}</strong><BR>{LocationDisplay}","geometry":{"type": "Point", "coordinates": [-117.823563, 34.01055]}},{"type":"Feature","properties": {"InitiativeTitle": "TIGER Grants","LocationDisplay": "95th Street Terminal Expansion","NumberOfProjects": 1,"id": 668},"popupTemplate": "<strong>{InitiativeTitle}</strong><BR>{LocationDisplay}","geometry":{"type": "Point", "coordinates": [-87.604244, 41.721791]}},{"type":"Feature","properties": {"InitiativeTitle": "TIGER Grants","LocationDisplay": "Access to Opportunity: Transportation and Housing Study in the East Rockaways","NumberOfProjects": 1,"id": 809},"popupTemplate": "<strong>{InitiativeTitle}</strong><BR>{LocationDisplay}","geometry":{"type": "Point", "coordinates": [-73.769245, 40.595902]}},{"type":"Feature","properties": {"InitiativeTitle": "TIGER Grants","LocationDisplay": "Alakanuk Community Streets Improvement","NumberOfProjects": 1,"id": 715},"popupTemplate": "<strong>{InitiativeTitle}</strong><BR>{LocationDisplay}","geometry":{"type": "Point", "coordinates": [-164.65352, 62.685282]}},{"type":"Feature","properties": {"InitiativeTitle": "TIGER Grants","LocationDisplay": "Alameda Corridor East: Colton Crossing","NumberOfProjects": 1,"id": 533},"popupTemplate": "<strong>{InitiativeTitle}</strong><BR>{LocationDisplay}","geometry":{"type": "Point", "coordinates": [-117.330146, 34.072603]}},{"type":"Feature","properties": {"InitiativeTitle": "TIGER Grants","LocationDisplay": "Allegheny Riverfront Green Boulevard Planning","NumberOfProjects": 1,"id": 608},"popupTemplate": "<strong>{InitiativeTitle}</strong><BR>{LocationDisplay}","geometry":{"type": "Point", "coordinates": [-79.997588, 40.438136]}},{"type":"Feature","properties": {"InitiativeTitle": "TIGER Grants","LocationDisplay": "Aloha-Reedville Study and Livable Community Plan","NumberOfProjects": 1,"id": 616},"popupTemplate": "<strong>{InitiativeTitle}</strong><BR>{LocationDisplay}","geometry":{"type": "Point", "coordinates": [-122.903183, 45.496706]}},{"type":"Feature","properties": {"InitiativeTitle": "TIGER Grants","LocationDisplay": "Alton Regional Multimodal Station","NumberOfProjects": 1,"id": 654},"popupTemplate": "<strong>{InitiativeTitle}</strong><BR>{LocationDisplay}","geometry":{"type": "Point", "coordinates": [-90.182714, 38.894202]}},{"type":"Feature","properties": {"InitiativeTitle": "TIGER Grants","LocationDisplay": "Ames Intermodal Facility","NumberOfProjects": 1,"id": 503},"popupTemplate": "<strong>{InitiativeTitle}</strong><BR>{LocationDisplay}","geometry":{"type": "Point", "coordinates": [-93.611961, 42.02177]}},{"type":"Feature","properties": {"InitiativeTitle": "TIGER Grants","LocationDisplay": "Anacostia Bicycle and Pedestrian Project","NumberOfProjects": 1,"id": 669},"popupTemplate": "<strong>{InitiativeTitle}</strong><BR>{LocationDisplay}","geometry":{"type": "Point", "coordinates": [-76.94858, 38.908408]}},{"type":"Feature","properties": {"InitiativeTitle": "TIGER Grants","LocationDisplay": "Ann Arbor Bridges","NumberOfProjects": 1,"id": 573},"popupTemplate": "<strong>{InitiativeTitle}</strong><BR>{LocationDisplay}","geometry":{"type": "Point", "coordinates": [-83.750509, 42.286834]}},{"type":"Feature","properties": {"InitiativeTitle": "TIGER Grants","LocationDisplay": "Appalachian Regional Short Line Rail Project (KY, WV and TN)","NumberOfProjects": 1,"id": 512},"popupTemplate": "<strong>{InitiativeTitle}</strong><BR>{LocationDisplay}","geometry":{"type": "Point", "coordinates": [-82.97729, 36.915812]}},{"type":"Feature","properties": {"InitiativeTitle": "TIGER Grants","LocationDisplay": "Apponaug Circulator Improvements","NumberOfProjects": 1,"id": 716},"popupTemplate": "<strong>{InitiativeTitle}</strong><BR>{LocationDisplay}","geometry":{"type": "Point", "coordinates": [-71.460004, 41.698669]}},{"type":"Feature","properties": {"InitiativeTitle": "TIGER Grants","LocationDisplay": "Aroostook Rail Preservation","NumberOfProjects": 1,"id": 569},"popupTemplate": "<strong>{InitiativeTitle}</strong><BR>{LocationDisplay}","geometry":{"type": "Point", "coordinates": [-68.228638, 46.075136]}},{"type":"Feature","properties": {"InitiativeTitle": "TIGER Grants","LocationDisplay": "Asheville East of the Riverway Multimodal Network","NumberOfProjects": 1,"id": 768},"popupTemplate": "<strong>{InitiativeTitle}</strong><BR>{LocationDisplay}","geometry":{"type": "Point", "coordinates": [-82.568865, 35.595763]}},{"type":"Feature","properties": {"InitiativeTitle": "TIGER Grants","LocationDisplay": "Asheville NC East Riverside Sustainable Multi-Modal Neighborhood","NumberOfProjects": 1,"id": 609},"popupTemplate": "<strong>{InitiativeTitle}</strong><BR>{LocationDisplay}","geometry":{"type": "Point", "coordinates": [-82.553182, 35.598426]}},{"type":"Feature","properties": {"InitiativeTitle": "TIGER Grants","LocationDisplay": "Atlanta Streetcar - Centennial Park to King Center","NumberOfProjects": 1,"id": 588},"popupTemplate": "<strong>{InitiativeTitle}</strong><BR>{LocationDisplay}","geometry":{"type": "Point", "coordinates": [-84.388997, 33.754888]}},{"type":"Feature","properties": {"InitiativeTitle": "TIGER Grants","LocationDisplay": "Augusta Sustainable Development Implementation Program","NumberOfProjects": 1,"id": 610},"popupTemplate": "<strong>{InitiativeTitle}</strong><BR>{LocationDisplay}","geometry":{"type": "Point", "coordinates": [-81.975139, 33.478949]}},{"type":"Feature","properties": {"InitiativeTitle": "TIGER Grants","LocationDisplay": "Auke Bay Loading Facility","NumberOfProjects": 1,"id": 499},"popupTemplate": "<strong>{InitiativeTitle}</strong><BR>{LocationDisplay}","geometry":{"type": "Point", "coordinates": [-134.39854, 58.299255]}},{"type":"Feature","properties": {"InitiativeTitle": "TIGER Grants","LocationDisplay": "Beartooth Highway Reconstruction Project","NumberOfProjects": 1,"id": 501},"popupTemplate": "<strong>{InitiativeTitle}</strong><BR>{LocationDisplay}","geometry":{"type": "Point", "coordinates": [-109.560485, 44.47774]}},{"type":"Feature","properties": {"InitiativeTitle": "TIGER Grants","LocationDisplay": "Bella Vista Bypass (AR and MO)","NumberOfProjects": 1,"id": 504},"popupTemplate": "<strong>{InitiativeTitle}</strong><BR>{LocationDisplay}","geometry":{"type": "Point", "coordinates": [-93.723292, 36.434491]}},{"type":"Feature","properties": {"InitiativeTitle": "TIGER Grants","LocationDisplay": "BIA 7 - College Road Improvements","NumberOfProjects": 1,"id": 670},"popupTemplate": "<strong>{InitiativeTitle}</strong><BR>{LocationDisplay}","geometry":{"type": "Point", "coordinates": [-100.052039, 48.941233]}},{"type":"Feature","properties": {"InitiativeTitle": "TIGER Grants","LocationDisplay": "Bike/Ped Trail Design","NumberOfProjects": 1,"id": 615},"popupTemplate": "<strong>{InitiativeTitle}</strong><BR>{LocationDisplay}","geometry":{"type": "Point", "coordinates": [-107.298167, 34.962108]}},{"type":"Feature","properties": {"InitiativeTitle": "TIGER Grants","LocationDisplay": "Birmingham Roads to Recovery","NumberOfProjects": 1,"id": 671},"popupTemplate": "<strong>{InitiativeTitle}</strong><BR>{LocationDisplay}","geometry":{"type": "Point", "coordinates": [-86.809913, 33.520684]}},{"type":"Feature","properties": {"InitiativeTitle": "TIGER Grants","LocationDisplay": "Black River Bridge Replacement","NumberOfProjects": 1,"id": 529},"popupTemplate": "<strong>{InitiativeTitle}</strong><BR>{LocationDisplay}","geometry":{"type": "Point", "coordinates": [-82.422959, 42.974323]}},{"type":"Feature","properties": {"InitiativeTitle": "TIGER Grants","LocationDisplay": "Boundary Street Redevelopment","NumberOfProjects": 1,"id": 652},"popupTemplate": "<strong>{InitiativeTitle}</strong><BR>{LocationDisplay}","geometry":{"type": "Point", "coordinates": [-80.670284, 32.439303]}},{"type":"Feature","properties": {"InitiativeTitle": "TIGER Grants","LocationDisplay": "Bridge Boulevard Corridor Redevelopment Plan","NumberOfProjects": 1,"id": 597},"popupTemplate": "<strong>{InitiativeTitle}</strong><BR>{LocationDisplay}","geometry":{"type": "Point", "coordinates": [-106.646881, 35.081067]}},{"type":"Feature","properties": {"InitiativeTitle": "TIGER Grants","LocationDisplay": "Broad Street Bus Rapid Transit","NumberOfProjects": 1,"id": 769},"popupTemplate": "<strong>{InitiativeTitle}</strong><BR>{LocationDisplay}","geometry":{"type": "Point", "coordinates": [-77.524338, 37.617495]}},{"type":"Feature","properties": {"InitiativeTitle": "TIGER Grants","LocationDisplay": "Broad Street Road Diet","NumberOfProjects": 1,"id": 601},"popupTemplate": "<strong>{InitiativeTitle}</strong><BR>{LocationDisplay}","geometry":{"type": "Point", "coordinates": [-80.606079, 34.246065]}},{"type":"Feature","properties": {"InitiativeTitle": "TIGER Grants","LocationDisplay": "Broadway Bridge Plan","NumberOfProjects": 1,"id": 810},"popupTemplate": "<strong>{InitiativeTitle}</strong><BR>{LocationDisplay}","geometry":{"type": "Point", "coordinates": [-121.510506, 38.581251]}},{"type":"Feature","properties": {"InitiativeTitle": "TIGER Grants","LocationDisplay": "Bronzeville Bridge to Chicago's Lakefront","NumberOfProjects": 1,"id": 770},"popupTemplate": "<strong>{InitiativeTitle}</strong><BR>{LocationDisplay}","geometry":{"type": "Point", "coordinates": [-87.600195, 41.820567]}},{"type":"Feature","properties": {"InitiativeTitle": "TIGER Grants","LocationDisplay": "BT1 Infrastructure Expansion Project","NumberOfProjects": 1,"id": 771},"popupTemplate": "<strong>{InitiativeTitle}</strong><BR>{LocationDisplay}","geometry":{"type": "Point", "coordinates": [-93.291659, 30.195014]}},{"type":"Feature","properties": {"InitiativeTitle": "TIGER Grants","LocationDisplay": "Buffalo Main Street Revitalization","NumberOfProjects": 1,"id": 655},"popupTemplate": "<strong>{InitiativeTitle}</strong><BR>{LocationDisplay}","geometry":{"type": "Point", "coordinates": [-78.877927, 42.884156]}},{"type":"Feature","properties": {"InitiativeTitle": "TIGER Grants","LocationDisplay": "Building Livability in Pontiac: Planning for Connectivity between the Downtown, Neighborhoods and Transit","NumberOfProjects": 1,"id": 598},"popupTemplate": "<strong>{InitiativeTitle}</strong><BR>{LocationDisplay}","geometry":{"type": "Point", "coordinates": [-83.288315, 42.636761]}},{"type":"Feature","properties": {"InitiativeTitle": "TIGER Grants","LocationDisplay": "Burlington Waterfront North Project","NumberOfProjects": 1,"id": 497},"popupTemplate": "<strong>{InitiativeTitle}</strong><BR>{LocationDisplay}","geometry":{"type": "Point", "coordinates": [-73.204986, 44.472002]}},{"type":"Feature","properties": {"InitiativeTitle": "TIGER Grants","LocationDisplay": "California Green Trade Corridor/Marine Highway Project","NumberOfProjects": 1,"id": 530},"popupTemplate": "<strong>{InitiativeTitle}</strong><BR>{LocationDisplay}","geometry":{"type": "Point", "coordinates": [-121.798367, 38.159304]}},{"type":"Feature","properties": {"InitiativeTitle": "TIGER Grants","LocationDisplay": "Canal Crossing","NumberOfProjects": 1,"id": 618},"popupTemplate": "<strong>{InitiativeTitle}</strong><BR>{LocationDisplay}","geometry":{"type": "Point", "coordinates": [-74.045889, 40.718961]}},{"type":"Feature","properties": {"InitiativeTitle": "TIGER Grants","LocationDisplay": "Caparra Interchange","NumberOfProjects": 1,"id": 635},"popupTemplate": "<strong>{InitiativeTitle}</strong><BR>{LocationDisplay}","geometry":{"type": "Point", "coordinates": [-66.113952, 18.367061]}},{"type":"Feature","properties": {"InitiativeTitle": "TIGER Grants","LocationDisplay": "Carrie Furnace Flyover Bridge","NumberOfProjects": 1,"id": 636},"popupTemplate": "<strong>{InitiativeTitle}</strong><BR>{LocationDisplay}","geometry":{"type": "Point", "coordinates": [-79.997077, 40.437885]}},{"type":"Feature","properties": {"InitiativeTitle": "TIGER Grants","LocationDisplay": "Central Corridor Transit Enhancement and Job Access Project","NumberOfProjects": 1,"id": 772},"popupTemplate": "<strong>{InitiativeTitle}</strong><BR>{LocationDisplay}","geometry":{"type": "Point", "coordinates": [-90.263758, 38.637188]}},{"type":"Feature","properties": {"InitiativeTitle": "TIGER Grants","LocationDisplay": "Central Omaha Bus Rapid Transit","NumberOfProjects": 1,"id": 773},"popupTemplate": "<strong>{InitiativeTitle}</strong><BR>{LocationDisplay}","geometry":{"type": "Point", "coordinates": [-95.983343, 41.261291]}},{"type":"Feature","properties": {"InitiativeTitle": "TIGER Grants","LocationDisplay": "Central Pennsylvania Rail and Road Expansion","NumberOfProjects": 1,"id": 557},"popupTemplate": "<strong>{InitiativeTitle}</strong><BR>{LocationDisplay}","geometry":{"type": "Point", "coordinates": [-76.916917, 41.245272]}},{"type":"Feature","properties": {"InitiativeTitle": "TIGER Grants","LocationDisplay": "Central Phoenix Multimodal Transportation Improvement Plan","NumberOfProjects": 1,"id": 811},"popupTemplate": "<strong>{InitiativeTitle}</strong><BR>{LocationDisplay}","geometry":{"type": "Point", "coordinates": [-112.073851, 33.428719]}},{"type":"Feature","properties": {"InitiativeTitle": "TIGER Grants","LocationDisplay": "Charter Oak Ranch Road Plan","NumberOfProjects": 1,"id": 812},"popupTemplate": "<strong>{InitiativeTitle}</strong><BR>{LocationDisplay}","geometry":{"type": "Point", "coordinates": [-104.714985, 38.671606]}},{"type":"Feature","properties": {"InitiativeTitle": "TIGER Grants","LocationDisplay": "Chicago Blue Line Renewal and City Bike Share","NumberOfProjects": 1,"id": 664},"popupTemplate": "<strong>{InitiativeTitle}</strong><BR>{LocationDisplay}","geometry":{"type": "Point", "coordinates": [-87.785135, 41.929858]}},{"type":"Feature","properties": {"InitiativeTitle": "TIGER Grants","LocationDisplay": "Cincinnati Streetcar Riverfront Loop","NumberOfProjects": 1,"id": 647},"popupTemplate": "<strong>{InitiativeTitle}</strong><BR>{LocationDisplay}","geometry":{"type": "Point", "coordinates": [-84.497037, 39.10148]}},{"type":"Feature","properties": {"InitiativeTitle": "TIGER Grants","LocationDisplay": "City of American Falls Complete Streets","NumberOfProjects": 1,"id": 625},"popupTemplate": "<strong>{InitiativeTitle}</strong><BR>{LocationDisplay}","geometry":{"type": "Point", "coordinates": [-112.848678, 42.780976]}},{"type":"Feature","properties": {"InitiativeTitle": "TIGER Grants","LocationDisplay": "City of Chattanooga Rail Transit Implementation Plan","NumberOfProjects": 1,"id": 813},"popupTemplate": "<strong>{InitiativeTitle}</strong><BR>{LocationDisplay}","geometry":{"type": "Point", "coordinates": [-85.310789, 35.045751]}},{"type":"Feature","properties": {"InitiativeTitle": "TIGER Grants","LocationDisplay": "Claiborne Corridor Plan","NumberOfProjects": 1,"id": 612},"popupTemplate": "<strong>{InitiativeTitle}</strong><BR>{LocationDisplay}","geometry":{"type": "Point", "coordinates": [-90.085551, 29.953125]}},{"type":"Feature","properties": {"InitiativeTitle": "TIGER Grants","LocationDisplay": "Coalfields Expressway","NumberOfProjects": 1,"id": 672},"popupTemplate": "<strong>{InitiativeTitle}</strong><BR>{LocationDisplay}","geometry":{"type": "Point", "coordinates": [-81.382794, 37.581085]}},{"type":"Feature","properties": {"InitiativeTitle": "TIGER Grants","LocationDisplay": "Colorado Sustainable Main Streets Initiative","NumberOfProjects": 1,"id": 600},"popupTemplate": "<strong>{InitiativeTitle}</strong><BR>{LocationDisplay}","geometry":{"type": "Point", "coordinates": [-106.887718, 37.261893]}},{"type":"Feature","properties": {"InitiativeTitle": "TIGER Grants","LocationDisplay": "Computer Aided Dispatch/Automatic Vehicle Location (CAD/AVL) System Replacement Project","NumberOfProjects": 1,"id": 774},"popupTemplate": "<strong>{InitiativeTitle}</strong><BR>{LocationDisplay}","geometry":{"type": "Point", "coordinates": [-73.76564, 42.681426]}},{"type":"Feature","properties": {"InitiativeTitle": "TIGER Grants","LocationDisplay": "Concord Downtown Complete Streets Project","NumberOfProjects": 1,"id": 673},"popupTemplate": "<strong>{InitiativeTitle}</strong><BR>{LocationDisplay}","geometry":{"type": "Point", "coordinates": [-71.536426, 43.206749]}},{"type":"Feature","properties": {"InitiativeTitle": "TIGER Grants","LocationDisplay": "Connect Historic Boston","NumberOfProjects": 1,"id": 717},"popupTemplate": "<strong>{InitiativeTitle}</strong><BR>{LocationDisplay}","geometry":{"type": "Point", "coordinates": [-71.055672, 42.364815]}},{"type":"Feature","properties": {"InitiativeTitle": "TIGER Grants","LocationDisplay": "Coos Bay Rail Line (Coos, Douglas, Lane Counties)","NumberOfProjects": 1,"id": 572},"popupTemplate": "<strong>{InitiativeTitle}</strong><BR>{LocationDisplay}","geometry":{"type": "Point", "coordinates": [-124.21204, 43.362567]}},{"type":"Feature","properties": {"InitiativeTitle": "TIGER Grants","LocationDisplay": "CREATE Program Rail Projects","NumberOfProjects": 1,"id": 546},"popupTemplate": "<strong>{InitiativeTitle}</strong><BR>{LocationDisplay}","geometry":{"type": "Point", "coordinates": [-87.658874, 41.883356]}},{"type":"Feature","properties": {"InitiativeTitle": "TIGER Grants","LocationDisplay": "CREATE","NumberOfProjects": 1,"id": 674},"popupTemplate": "<strong>{InitiativeTitle}</strong><BR>{LocationDisplay}","geometry":{"type": "Point", "coordinates": [-87.686513, 41.888362]}},{"type":"Feature","properties": {"InitiativeTitle": "TIGER Grants","LocationDisplay": "Crenshaw/LAX Light Rail Connection","NumberOfProjects": 1,"id": 582},"popupTemplate": "<strong>{InitiativeTitle}</strong><BR>{LocationDisplay}","geometry":{"type": "Point", "coordinates": [-118.391274, 33.932251]}},{"type":"Feature","properties": {"InitiativeTitle": "TIGER Grants","LocationDisplay": "Crescent Corridor Intermodal Freight Rail Project","NumberOfProjects": 1,"id": 547},"popupTemplate": "<strong>{InitiativeTitle}</strong><BR>{LocationDisplay}","geometry":{"type": "Point", "coordinates": [-88.737991, 34.258891]}},{"type":"Feature","properties": {"InitiativeTitle": "TIGER Grants","LocationDisplay": "Dames Point Marine Terminal Intermodal","NumberOfProjects": 1,"id": 637},"popupTemplate": "<strong>{InitiativeTitle}</strong><BR>{LocationDisplay}","geometry":{"type": "Point", "coordinates": [-81.566218, 30.398273]}},{"type":"Feature","properties": {"InitiativeTitle": "TIGER Grants","LocationDisplay": "DART Orange Line Extension","NumberOfProjects": 1,"id": 629},"popupTemplate": "<strong>{InitiativeTitle}</strong><BR>{LocationDisplay}","geometry":{"type": "Point", "coordinates": [-96.796004, 32.777933]}},{"type":"Feature","properties": {"InitiativeTitle": "TIGER Grants","LocationDisplay": "Delta Frame Bridge","NumberOfProjects": 1,"id": 718},"popupTemplate": "<strong>{InitiativeTitle}</strong><BR>{LocationDisplay}","geometry":{"type": "Point", "coordinates": [-79.439284, 37.814362]}},{"type":"Feature","properties": {"InitiativeTitle": "TIGER Grants","LocationDisplay": "Denver TOD Program - Strategic Implementation","NumberOfProjects": 1,"id": 614},"popupTemplate": "<strong>{InitiativeTitle}</strong><BR>{LocationDisplay}","geometry":{"type": "Point", "coordinates": [-104.995697, 39.739481]}},{"type":"Feature","properties": {"InitiativeTitle": "TIGER Grants","LocationDisplay": "Des Moines Multimodal Hub","NumberOfProjects": 1,"id": 558},"popupTemplate": "<strong>{InitiativeTitle}</strong><BR>{LocationDisplay}","geometry":{"type": "Point", "coordinates": [-93.614, 41.590027]}},{"type":"Feature","properties": {"InitiativeTitle": "TIGER Grants","LocationDisplay": "Devils Lake Rail Improvements","NumberOfProjects": 1,"id": 638},"popupTemplate": "<strong>{InitiativeTitle}</strong><BR>{LocationDisplay}","geometry":{"type": "Point", "coordinates": [-99.045322, 48.191688]}},{"type":"Feature","properties": {"InitiativeTitle": "TIGER Grants","LocationDisplay": "Dilworth Plaza and Concourse Improvements","NumberOfProjects": 1,"id": 575},"popupTemplate": "<strong>{InitiativeTitle}</strong><BR>{LocationDisplay}","geometry":{"type": "Point", "coordinates": [-75.163492, 39.953767]}},{"type":"Feature","properties": {"InitiativeTitle": "TIGER Grants","LocationDisplay": "Downtown Clinton Street Improvements","NumberOfProjects": 1,"id": 675},"popupTemplate": "<strong>{InitiativeTitle}</strong><BR>{LocationDisplay}","geometry":{"type": "Point", "coordinates": [-90.196166, 41.833927]}},{"type":"Feature","properties": {"InitiativeTitle": "TIGER Grants","LocationDisplay": "Downtown Dahlonega Complete Streets Corridor Improvements","NumberOfProjects": 1,"id": 605},"popupTemplate": "<strong>{InitiativeTitle}</strong><BR>{LocationDisplay}","geometry":{"type": "Point", "coordinates": [-83.984005, 34.53298]}},{"type":"Feature","properties": {"InitiativeTitle": "TIGER Grants","LocationDisplay": "Downtown Dahlonega Complete Streets Corridor Improvements","NumberOfProjects": 1,"id": 775},"popupTemplate": "<strong>{InitiativeTitle}</strong><BR>{LocationDisplay}","geometry":{"type": "Point", "coordinates": [-83.984814, 34.529753]}},{"type":"Feature","properties": {"InitiativeTitle": "TIGER Grants","LocationDisplay": "Downtown Dallas Streetcar","NumberOfProjects": 1,"id": 524},"popupTemplate": "<strong>{InitiativeTitle}</strong><BR>{LocationDisplay}","geometry":{"type": "Point", "coordinates": [-96.804271, 32.790685]}},{"type":"Feature","properties": {"InitiativeTitle": "TIGER Grants","LocationDisplay": "Downtown Madison Intermodal Terminal","NumberOfProjects": 1,"id": 611},"popupTemplate": "<strong>{InitiativeTitle}</strong><BR>{LocationDisplay}","geometry":{"type": "Point", "coordinates": [-89.386645, 43.072854]}},{"type":"Feature","properties": {"InitiativeTitle": "TIGER Grants","LocationDisplay": "Downtown St. Albans Streetscape Improvements","NumberOfProjects": 1,"id": 593},"popupTemplate": "<strong>{InitiativeTitle}</strong><BR>{LocationDisplay}","geometry":{"type": "Point", "coordinates": [-73.083689, 44.810586]}},{"type":"Feature","properties": {"InitiativeTitle": "TIGER Grants","LocationDisplay": "Doyle Drive Replacement","NumberOfProjects": 1,"id": 538},"popupTemplate": "<strong>{InitiativeTitle}</strong><BR>{LocationDisplay}","geometry":{"type": "Point", "coordinates": [-122.425743, 37.774004]}},{"type":"Feature","properties": {"InitiativeTitle": "TIGER Grants","LocationDisplay": "Duke Belt Line Trail Master Plan","NumberOfProjects": 1,"id": 814},"popupTemplate": "<strong>{InitiativeTitle}</strong><BR>{LocationDisplay}","geometry":{"type": "Point", "coordinates": [-78.896942, 36.008562]}},{"type":"Feature","properties": {"InitiativeTitle": "TIGER Grants","LocationDisplay": "East 105th/East 93rd Transportation Corridor Plan","NumberOfProjects": 1,"id": 815},"popupTemplate": "<strong>{InitiativeTitle}</strong><BR>{LocationDisplay}","geometry":{"type": "Point", "coordinates": [-81.615586, 41.539872]}},{"type":"Feature","properties": {"InitiativeTitle": "TIGER Grants","LocationDisplay": "East Bay Pedestrian and Bicycle Network","NumberOfProjects": 1,"id": 565},"popupTemplate": "<strong>{InitiativeTitle}</strong><BR>{LocationDisplay}","geometry":{"type": "Point", "coordinates": [-122.298115, 37.890299]}},{"type":"Feature","properties": {"InitiativeTitle": "TIGER Grants","LocationDisplay": "East Foster Wells Road Extension","NumberOfProjects": 1,"id": 548},"popupTemplate": "<strong>{InitiativeTitle}</strong><BR>{LocationDisplay}","geometry":{"type": "Point", "coordinates": [-119.053543, 46.287885]}},{"type":"Feature","properties": {"InitiativeTitle": "TIGER Grants","LocationDisplay": "East Liberty Transit Center","NumberOfProjects": 1,"id": 676},"popupTemplate": "<strong>{InitiativeTitle}</strong><BR>{LocationDisplay}","geometry":{"type": "Point", "coordinates": [-79.925021, 40.455249]}},{"type":"Feature","properties": {"InitiativeTitle": "TIGER Grants","LocationDisplay": "Eastport Breakwater Replacement","NumberOfProjects": 1,"id": 719},"popupTemplate": "<strong>{InitiativeTitle}</strong><BR>{LocationDisplay}","geometry":{"type": "Point", "coordinates": [-66.984765, 44.903819]}},{"type":"Feature","properties": {"InitiativeTitle": "TIGER Grants","LocationDisplay": "Eastside Access Improvements","NumberOfProjects": 1,"id": 776},"popupTemplate": "<strong>{InitiativeTitle}</strong><BR>{LocationDisplay}","geometry":{"type": "Point", "coordinates": [-118.231524, 34.051886]}},{"type":"Feature","properties": {"InitiativeTitle": "TIGER Grants","LocationDisplay": "Eisenhower/Johnson Memorial Tunnel Fire Suppression","NumberOfProjects": 1,"id": 720},"popupTemplate": "<strong>{InitiativeTitle}</strong><BR>{LocationDisplay}","geometry":{"type": "Point", "coordinates": [-105.914753, 39.679448]}},{"type":"Feature","properties": {"InitiativeTitle": "TIGER Grants","LocationDisplay": "Electric Vehicle Corridor (I-5)","NumberOfProjects": 1,"id": 552},"popupTemplate": "<strong>{InitiativeTitle}</strong><BR>{LocationDisplay}","geometry":{"type": "Point", "coordinates": [-122.806034, 45.267155]}},{"type":"Feature","properties": {"InitiativeTitle": "TIGER Grants","LocationDisplay": "Erick to Sayre Freight Railroad Rehabilitation","NumberOfProjects": 1,"id": 721},"popupTemplate": "<strong>{InitiativeTitle}</strong><BR>{LocationDisplay}","geometry":{"type": "Point", "coordinates": [-99.639229, 35.291271]}},{"type":"Feature","properties": {"InitiativeTitle": "TIGER Grants","LocationDisplay": "Fast Track New Bedford","NumberOfProjects": 1,"id": 513},"popupTemplate": "<strong>{InitiativeTitle}</strong><BR>{LocationDisplay}","geometry":{"type": "Point", "coordinates": [-70.931085, 41.637541]}},{"type":"Feature","properties": {"InitiativeTitle": "TIGER Grants","LocationDisplay": "Fitchburg Commuter Rail Extension and Wachusett Station","NumberOfProjects": 1,"id": 541},"popupTemplate": "<strong>{InitiativeTitle}</strong><BR>{LocationDisplay}","geometry":{"type": "Point", "coordinates": [-71.792173, 42.581507]}},{"type":"Feature","properties": {"InitiativeTitle": "TIGER Grants","LocationDisplay": "Flamingo Corridor Improvements","NumberOfProjects": 1,"id": 777},"popupTemplate": "<strong>{InitiativeTitle}</strong><BR>{LocationDisplay}","geometry":{"type": "Point", "coordinates": [-115.191135, 36.115552]}},{"type":"Feature","properties": {"InitiativeTitle": "TIGER Grants","LocationDisplay": "Foley Transportation Regional Infrastructure Pedestrian System (TRIPS)","NumberOfProjects": 1,"id": 722},"popupTemplate": "<strong>{InitiativeTitle}</strong><BR>{LocationDisplay}","geometry":{"type": "Point", "coordinates": [-87.683816, 30.406397]}},{"type":"Feature","properties": {"InitiativeTitle": "TIGER Grants","LocationDisplay": "Fordham Transit Plaza (The Bronx)","NumberOfProjects": 1,"id": 559},"popupTemplate": "<strong>{InitiativeTitle}</strong><BR>{LocationDisplay}","geometry":{"type": "Point", "coordinates": [-73.890677, 40.861927]}},{"type":"Feature","properties": {"InitiativeTitle": "TIGER Grants","LocationDisplay": "Fort Berthold Comprehensive Regional Transportation Plan","NumberOfProjects": 1,"id": 816},"popupTemplate": "<strong>{InitiativeTitle}</strong><BR>{LocationDisplay}","geometry":{"type": "Point", "coordinates": [-102.120542, 47.647548]}},{"type":"Feature","properties": {"InitiativeTitle": "TIGER Grants","LocationDisplay": "Fort Lauderdale Wave Streetcar Project","NumberOfProjects": 1,"id": 677},"popupTemplate": "<strong>{InitiativeTitle}</strong><BR>{LocationDisplay}","geometry":{"type": "Point", "coordinates": [-80.143261, 26.12367]}},{"type":"Feature","properties": {"InitiativeTitle": "TIGER Grants","LocationDisplay": "Fort Meade Multimodal Accessibility Project","NumberOfProjects": 1,"id": 778},"popupTemplate": "<strong>{InitiativeTitle}</strong><BR>{LocationDisplay}","geometry":{"type": "Point", "coordinates": [-76.726627, 39.113746]}},{"type":"Feature","properties": {"InitiativeTitle": "TIGER Grants","LocationDisplay": "Forward Madison: Urban Footprint Scenario Planning","NumberOfProjects": 1,"id": 817},"popupTemplate": "<strong>{InitiativeTitle}</strong><BR>{LocationDisplay}","geometry":{"type": "Point", "coordinates": [-89.374056, 43.081985]}},{"type":"Feature","properties": {"InitiativeTitle": "TIGER Grants","LocationDisplay": "Freight Rail Reactivation and Rehab","NumberOfProjects": 1,"id": 554},"popupTemplate": "<strong>{InitiativeTitle}</strong><BR>{LocationDisplay}","geometry":{"type": "Point", "coordinates": [-103.017281, 42.836199]}},{"type":"Feature","properties": {"InitiativeTitle": "TIGER Grants","LocationDisplay": "Fulton Mall Reconstruction","NumberOfProjects": 1,"id": 723},"popupTemplate": "<strong>{InitiativeTitle}</strong><BR>{LocationDisplay}","geometry":{"type": "Point", "coordinates": [-119.790675, 36.733914]}},{"type":"Feature","properties": {"InitiativeTitle": "TIGER Grants","LocationDisplay": "Garrows Bend Intermodal Container Transfer Facility","NumberOfProjects": 1,"id": 678},"popupTemplate": "<strong>{InitiativeTitle}</strong><BR>{LocationDisplay}","geometry":{"type": "Point", "coordinates": [-88.037445, 30.667714]}},{"type":"Feature","properties": {"InitiativeTitle": "TIGER Grants","LocationDisplay": "Goldsboro Main Street Revitalization","NumberOfProjects": 1,"id": 724},"popupTemplate": "<strong>{InitiativeTitle}</strong><BR>{LocationDisplay}","geometry":{"type": "Point", "coordinates": [-77.998866, 35.386345]}},{"type":"Feature","properties": {"InitiativeTitle": "TIGER Grants","LocationDisplay": "Grand Boulevard: Removing Barriers to Livable Communities","NumberOfProjects": 1,"id": 613},"popupTemplate": "<strong>{InitiativeTitle}</strong><BR>{LocationDisplay}","geometry":{"type": "Point", "coordinates": [-122.249351, 37.47581]}},{"type":"Feature","properties": {"InitiativeTitle": "TIGER Grants","LocationDisplay": "Great Plains Freight Rail (Kansas and Oklahoma)","NumberOfProjects": 1,"id": 566},"popupTemplate": "<strong>{InitiativeTitle}</strong><BR>{LocationDisplay}","geometry":{"type": "Point", "coordinates": [-95.552401, 37.271867]}},{"type":"Feature","properties": {"InitiativeTitle": "TIGER Grants","LocationDisplay": "Great Western Freight Improvement","NumberOfProjects": 1,"id": 725},"popupTemplate": "<strong>{InitiativeTitle}</strong><BR>{LocationDisplay}","geometry":{"type": "Point", "coordinates": [-104.895018, 40.478472]}},{"type":"Feature","properties": {"InitiativeTitle": "TIGER Grants","LocationDisplay": "Greater Downtown OKC Transit Circulator Environmental Assessment","NumberOfProjects": 1,"id": 599},"popupTemplate": "<strong>{InitiativeTitle}</strong><BR>{LocationDisplay}","geometry":{"type": "Point", "coordinates": [-97.52099, 35.471702]}},{"type":"Feature","properties": {"InitiativeTitle": "TIGER Grants","LocationDisplay": "Gulf Marine Highway Intermodal Project","NumberOfProjects": 1,"id": 679},"popupTemplate": "<strong>{InitiativeTitle}</strong><BR>{LocationDisplay}","geometry":{"type": "Point", "coordinates": [-97.411568, 25.950541]}},{"type":"Feature","properties": {"InitiativeTitle": "TIGER Grants","LocationDisplay": "Hanover Street Bridge Plan","NumberOfProjects": 1,"id": 818},"popupTemplate": "<strong>{InitiativeTitle}</strong><BR>{LocationDisplay}","geometry":{"type": "Point", "coordinates": [-76.616077, 39.258841]}},{"type":"Feature","properties": {"InitiativeTitle": "TIGER Grants","LocationDisplay": "Hartford's Intermodal Transportation Triangle","NumberOfProjects": 1,"id": 680},"popupTemplate": "<strong>{InitiativeTitle}</strong><BR>{LocationDisplay}","geometry":{"type": "Point", "coordinates": [-72.681688, 41.768722]}},{"type":"Feature","properties": {"InitiativeTitle": "TIGER Grants","LocationDisplay": "Highway 13/Maguire Street Corridor Study","NumberOfProjects": 1,"id": 591},"popupTemplate": "<strong>{InitiativeTitle}</strong><BR>{LocationDisplay}","geometry":{"type": "Point", "coordinates": [-93.736343, 38.774567]}},{"type":"Feature","properties": {"InitiativeTitle": "TIGER Grants","LocationDisplay": "Highway 92 Roadway Improvement and Bridge Replacements","NumberOfProjects": 1,"id": 726},"popupTemplate": "<strong>{InitiativeTitle}</strong><BR>{LocationDisplay}","geometry":{"type": "Point", "coordinates": [-92.277222, 35.888933]}},{"type":"Feature","properties": {"InitiativeTitle": "TIGER Grants","LocationDisplay": "Hollister Avenue Complete Streets Corridor Plan","NumberOfProjects": 1,"id": 819},"popupTemplate": "<strong>{InitiativeTitle}</strong><BR>{LocationDisplay}","geometry":{"type": "Point", "coordinates": [-119.840369, 34.433178]}},{"type":"Feature","properties": {"InitiativeTitle": "TIGER Grants","LocationDisplay": "Houston Intelligent Transportation System","NumberOfProjects": 1,"id": 779},"popupTemplate": "<strong>{InitiativeTitle}</strong><BR>{LocationDisplay}","geometry":{"type": "Point", "coordinates": [-95.369568, 29.8192]}},{"type":"Feature","properties": {"InitiativeTitle": "TIGER Grants","LocationDisplay": "Houston Regional Multimodal Connections to Transit","NumberOfProjects": 1,"id": 681},"popupTemplate": "<strong>{InitiativeTitle}</strong><BR>{LocationDisplay}","geometry":{"type": "Point", "coordinates": [-95.369524, 29.760003]}},{"type":"Feature","properties": {"InitiativeTitle": "TIGER Grants","LocationDisplay": "Hull Street Corridor Revitalization","NumberOfProjects": 1,"id": 592},"popupTemplate": "<strong>{InitiativeTitle}</strong><BR>{LocationDisplay}","geometry":{"type": "Point", "coordinates": [-77.432445, 37.539474]}},{"type":"Feature","properties": {"InitiativeTitle": "TIGER Grants","LocationDisplay": "Hunts Point Freight Rail Improvement Project","NumberOfProjects": 1,"id": 682},"popupTemplate": "<strong>{InitiativeTitle}</strong><BR>{LocationDisplay}","geometry":{"type": "Point", "coordinates": [-73.887372, 40.812916]}},{"type":"Feature","properties": {"InitiativeTitle": "TIGER Grants","LocationDisplay": "I-15 Virgin River Gorge Bridge","NumberOfProjects": 1,"id": 683},"popupTemplate": "<strong>{InitiativeTitle}</strong><BR>{LocationDisplay}","geometry":{"type": "Point", "coordinates": [-113.920437, 36.892813]}},{"type":"Feature","properties": {"InitiativeTitle": "TIGER Grants","LocationDisplay": "I-20 Mississippi River Bridge Rehabilitation","NumberOfProjects": 1,"id": 727},"popupTemplate": "<strong>{InitiativeTitle}</strong><BR>{LocationDisplay}","geometry":{"type": "Point", "coordinates": [-90.904613, 32.312036]}},{"type":"Feature","properties": {"InitiativeTitle": "TIGER Grants","LocationDisplay": "I-244 Multimodal Bridge Replacement","NumberOfProjects": 1,"id": 539},"popupTemplate": "<strong>{InitiativeTitle}</strong><BR>{LocationDisplay}","geometry":{"type": "Point", "coordinates": [-95.988536, 36.146696]}},{"type":"Feature","properties": {"InitiativeTitle": "TIGER Grants","LocationDisplay": "I-25 North Managed Lanes Extension and Express Bus Project","NumberOfProjects": 1,"id": 684},"popupTemplate": "<strong>{InitiativeTitle}</strong><BR>{LocationDisplay}","geometry":{"type": "Point", "coordinates": [-104.981964, 39.998242]}},{"type":"Feature","properties": {"InitiativeTitle": "TIGER Grants","LocationDisplay": "I-5 Lewis-McChord Area Congestion Mgmt.","NumberOfProjects": 1,"id": 656},"popupTemplate": "<strong>{InitiativeTitle}</strong><BR>{LocationDisplay}","geometry":{"type": "Point", "coordinates": [-122.585113, 47.100028]}},{"type":"Feature","properties": {"InitiativeTitle": "TIGER Grants","LocationDisplay": "I-85 Corridor Improvement and Yadkin River Crossing","NumberOfProjects": 1,"id": 505},"popupTemplate": "<strong>{InitiativeTitle}</strong><BR>{LocationDisplay}","geometry":{"type": "Point", "coordinates": [-80.352142, 35.739579]}},{"type":"Feature","properties": {"InitiativeTitle": "TIGER Grants","LocationDisplay": "I-90 Two Way Transit and HOV","NumberOfProjects": 1,"id": 728},"popupTemplate": "<strong>{InitiativeTitle}</strong><BR>{LocationDisplay}","geometry":{"type": "Point", "coordinates": [-122.239143, 47.587817]}},{"type":"Feature","properties": {"InitiativeTitle": "TIGER Grants","LocationDisplay": "I-95 Hot Lanes","NumberOfProjects": 1,"id": 665},"popupTemplate": "<strong>{InitiativeTitle}</strong><BR>{LocationDisplay}","geometry":{"type": "Point", "coordinates": [-77.284999, 38.650613]}},{"type":"Feature","properties": {"InitiativeTitle": "TIGER Grants","LocationDisplay": "I-95 Interchange and Access Project","NumberOfProjects": 1,"id": 506},"popupTemplate": "<strong>{InitiativeTitle}</strong><BR>{LocationDisplay}","geometry":{"type": "Point", "coordinates": [-79.359719, 34.388205]}},{"type":"Feature","properties": {"InitiativeTitle": "TIGER Grants","LocationDisplay": "I-95 Providence Viaduct Project","NumberOfProjects": 1,"id": 685},"popupTemplate": "<strong>{InitiativeTitle}</strong><BR>{LocationDisplay}","geometry":{"type": "Point", "coordinates": [-71.418219, 41.827936]}},{"type":"Feature","properties": {"InitiativeTitle": "TIGER Grants","LocationDisplay": "I-95/US-301 Interchange Improvement","NumberOfProjects": 1,"id": 650},"popupTemplate": "<strong>{InitiativeTitle}</strong><BR>{LocationDisplay}","geometry":{"type": "Point", "coordinates": [-80.478744, 33.461026]}},{"type":"Feature","properties": {"InitiativeTitle": "TIGER Grants","LocationDisplay": "Ihanktonwan Transit Facilities Project","NumberOfProjects": 1,"id": 686},"popupTemplate": "<strong>{InitiativeTitle}</strong><BR>{LocationDisplay}","geometry":{"type": "Point", "coordinates": [-98.423492, 42.992286]}},{"type":"Feature","properties": {"InitiativeTitle": "TIGER Grants","LocationDisplay": "IL 83 (147th Street) Reconstruction","NumberOfProjects": 1,"id": 644},"popupTemplate": "<strong>{InitiativeTitle}</strong><BR>{LocationDisplay}","geometry":{"type": "Point", "coordinates": [-87.694265, 41.880028]}},{"type":"Feature","properties": {"InitiativeTitle": "TIGER Grants","LocationDisplay": "IMPaCT Philadelphia","NumberOfProjects": 1,"id": 639},"popupTemplate": "<strong>{InitiativeTitle}</strong><BR>{LocationDisplay}","geometry":{"type": "Point", "coordinates": [-75.162324, 39.952048]}},{"type":"Feature","properties": {"InitiativeTitle": "TIGER Grants","LocationDisplay": "Improvements to BIA Route 2","NumberOfProjects": 1,"id": 729},"popupTemplate": "<strong>{InitiativeTitle}</strong><BR>{LocationDisplay}","geometry":{"type": "Point", "coordinates": [-102.68217, 43.243299]}},{"type":"Feature","properties": {"InitiativeTitle": "TIGER Grants","LocationDisplay": "Improvements to US-18","NumberOfProjects": 1,"id": 507},"popupTemplate": "<strong>{InitiativeTitle}</strong><BR>{LocationDisplay}","geometry":{"type": "Point", "coordinates": [-102.714862, 43.223942]}},{"type":"Feature","properties": {"InitiativeTitle": "TIGER Grants","LocationDisplay": "Indianapolis Bicycle and Pedestrian Network","NumberOfProjects": 1,"id": 520},"popupTemplate": "<strong>{InitiativeTitle}</strong><BR>{LocationDisplay}","geometry":{"type": "Point", "coordinates": [-86.17543, 39.766878]}},{"type":"Feature","properties": {"InitiativeTitle": "TIGER Grants","LocationDisplay": "Indianapolis Red Line Planning Studies","NumberOfProjects": 1,"id": 820},"popupTemplate": "<strong>{InitiativeTitle}</strong><BR>{LocationDisplay}","geometry":{"type": "Point", "coordinates": [-86.157875, 39.769756]}},{"type":"Feature","properties": {"InitiativeTitle": "TIGER Grants","LocationDisplay": "IndyGo Electric Bus","NumberOfProjects": 1,"id": 730},"popupTemplate": "<strong>{InitiativeTitle}</strong><BR>{LocationDisplay}","geometry":{"type": "Point", "coordinates": [-86.146358, 39.767043]}},{"type":"Feature","properties": {"InitiativeTitle": "TIGER Grants","LocationDisplay": "Inner Loop East Reconstruction","NumberOfProjects": 1,"id": 731},"popupTemplate": "<strong>{InitiativeTitle}</strong><BR>{LocationDisplay}","geometry":{"type": "Point", "coordinates": [-77.597416, 43.155017]}},{"type":"Feature","properties": {"InitiativeTitle": "TIGER Grants","LocationDisplay": "Interchange at US 10/CSAH 83","NumberOfProjects": 1,"id": 780},"popupTemplate": "<strong>{InitiativeTitle}</strong><BR>{LocationDisplay}","geometry":{"type": "Point", "coordinates": [-93.470306, 45.234616]}},{"type":"Feature","properties": {"InitiativeTitle": "TIGER Grants","LocationDisplay": "Jackson Intermodal Connectivity","NumberOfProjects": 1,"id": 732},"popupTemplate": "<strong>{InitiativeTitle}</strong><BR>{LocationDisplay}","geometry":{"type": "Point", "coordinates": [-110.762092, 43.479255]}},{"type":"Feature","properties": {"InitiativeTitle": "TIGER Grants","LocationDisplay": "Joplin Transportation and Disaster Recovery Projects","NumberOfProjects": 1,"id": 687},"popupTemplate": "<strong>{InitiativeTitle}</strong><BR>{LocationDisplay}","geometry":{"type": "Point", "coordinates": [-94.510809, 37.072446]}},{"type":"Feature","properties": {"InitiativeTitle": "TIGER Grants","LocationDisplay": "Kalamazoo to Dearborn Rail Improvements","NumberOfProjects": 1,"id": 733},"popupTemplate": "<strong>{InitiativeTitle}</strong><BR>{LocationDisplay}","geometry":{"type": "Point", "coordinates": [-84.410319, 42.248297]}},{"type":"Feature","properties": {"InitiativeTitle": "TIGER Grants","LocationDisplay": "Kansas City Downtown Streetcar","NumberOfProjects": 1,"id": 734},"popupTemplate": "<strong>{InitiativeTitle}</strong><BR>{LocationDisplay}","geometry":{"type": "Point", "coordinates": [-94.581774, 39.09669]}},{"type":"Feature","properties": {"InitiativeTitle": "TIGER Grants","LocationDisplay": "Kansas City Transit Corridors and Green Impact Zone Project","NumberOfProjects": 1,"id": 540},"popupTemplate": "<strong>{InitiativeTitle}</strong><BR>{LocationDisplay}","geometry":{"type": "Point", "coordinates": [-94.605632, 39.107903]}},{"type":"Feature","properties": {"InitiativeTitle": "TIGER Grants","LocationDisplay": "KC Workforce Connex Project","NumberOfProjects": 1,"id": 821},"popupTemplate": "<strong>{InitiativeTitle}</strong><BR>{LocationDisplay}","geometry":{"type": "Point", "coordinates": [-94.613056, 39.124268]}},{"type":"Feature","properties": {"InitiativeTitle": "TIGER Grants","LocationDisplay": "Kennebec Bridge Replacement","NumberOfProjects": 1,"id": 646},"popupTemplate": "<strong>{InitiativeTitle}</strong><BR>{LocationDisplay}","geometry":{"type": "Point", "coordinates": [-69.78306, 44.09061]}},{"type":"Feature","properties": {"InitiativeTitle": "TIGER Grants","LocationDisplay": "Kent Central Gateway Multimodal Transit Facility","NumberOfProjects": 1,"id": 514},"popupTemplate": "<strong>{InitiativeTitle}</strong><BR>{LocationDisplay}","geometry":{"type": "Point", "coordinates": [-81.359553, 41.147591]}},{"type":"Feature","properties": {"InitiativeTitle": "TIGER Grants","LocationDisplay": "Lafayette I-49 Corridor Plan","NumberOfProjects": 1,"id": 822},"popupTemplate": "<strong>{InitiativeTitle}</strong><BR>{LocationDisplay}","geometry":{"type": "Point", "coordinates": [-92.018827, 30.230683]}},{"type":"Feature","properties": {"InitiativeTitle": "TIGER Grants","LocationDisplay": "Lake County Transportation Connectivity Project","NumberOfProjects": 1,"id": 510},"popupTemplate": "<strong>{InitiativeTitle}</strong><BR>{LocationDisplay}","geometry":{"type": "Point", "coordinates": [-114.124502, 47.43018]}},{"type":"Feature","properties": {"InitiativeTitle": "TIGER Grants","LocationDisplay": "Land Use-Transportation Connections to Sustainable Schools","NumberOfProjects": 1,"id": 823},"popupTemplate": "<strong>{InitiativeTitle}</strong><BR>{LocationDisplay}","geometry":{"type": "Point", "coordinates": [-97.090302, 32.733863]}},{"type":"Feature","properties": {"InitiativeTitle": "TIGER Grants","LocationDisplay": "Lee County Complete Streets Initiative","NumberOfProjects": 1,"id": 735},"popupTemplate": "<strong>{InitiativeTitle}</strong><BR>{LocationDisplay}","geometry":{"type": "Point", "coordinates": [-81.805777, 26.330512]}},{"type":"Feature","properties": {"InitiativeTitle": "TIGER Grants","LocationDisplay": "Lexington Multi-Modal Transportation Station Area Plan","NumberOfProjects": 1,"id": 603},"popupTemplate": "<strong>{InitiativeTitle}</strong><BR>{LocationDisplay}","geometry":{"type": "Point", "coordinates": [-80.250339, 35.824316]}},{"type":"Feature","properties": {"InitiativeTitle": "TIGER Grants","LocationDisplay": "Link Detroit Multimodal Enhancements","NumberOfProjects": 1,"id": 688},"popupTemplate": "<strong>{InitiativeTitle}</strong><BR>{LocationDisplay}","geometry":{"type": "Point", "coordinates": [-83.046804, 42.331743]}},{"type":"Feature","properties": {"InitiativeTitle": "TIGER Grants","LocationDisplay": "Linking Greenville???s Neighborhoods to Jobs and Open Space","NumberOfProjects": 1,"id": 595},"popupTemplate": "<strong>{InitiativeTitle}</strong><BR>{LocationDisplay}","geometry":{"type": "Point", "coordinates": [-82.400094, 34.847702]}},{"type":"Feature","properties": {"InitiativeTitle": "TIGER Grants","LocationDisplay": "Linking the Rural Regions of Five Counties in Maine","NumberOfProjects": 1,"id": 606},"popupTemplate": "<strong>{InitiativeTitle}</strong><BR>{LocationDisplay}","geometry":{"type": "Point", "coordinates": [-68.637726, 45.385325]}},{"type":"Feature","properties": {"InitiativeTitle": "TIGER Grants","LocationDisplay": "Long Bridge NEPA Documentation","NumberOfProjects": 1,"id": 824},"popupTemplate": "<strong>{InitiativeTitle}</strong><BR>{LocationDisplay}","geometry":{"type": "Point", "coordinates": [-77.038516, 38.874736]}},{"type":"Feature","properties": {"InitiativeTitle": "TIGER Grants","LocationDisplay": "Lower Hill Redevelopment","NumberOfProjects": 1,"id": 825},"popupTemplate": "<strong>{InitiativeTitle}</strong><BR>{LocationDisplay}","geometry":{"type": "Point", "coordinates": [-79.989437, 40.442111]}},{"type":"Feature","properties": {"InitiativeTitle": "TIGER Grants","LocationDisplay": "LYNX Blue Line Capacity Expansion","NumberOfProjects": 1,"id": 662},"popupTemplate": "<strong>{InitiativeTitle}</strong><BR>{LocationDisplay}","geometry":{"type": "Point", "coordinates": [-80.839162, 35.21528]}},{"type":"Feature","properties": {"InitiativeTitle": "TIGER Grants","LocationDisplay": "M-1 Fixed Rail Streetcar Project","NumberOfProjects": 1,"id": 781},"popupTemplate": "<strong>{InitiativeTitle}</strong><BR>{LocationDisplay}","geometry":{"type": "Point", "coordinates": [-83.072948, 42.367169]}},{"type":"Feature","properties": {"InitiativeTitle": "TIGER Grants","LocationDisplay": "M1/Woodward Avenue Light Rail Project","NumberOfProjects": 1,"id": 528},"popupTemplate": "<strong>{InitiativeTitle}</strong><BR>{LocationDisplay}","geometry":{"type": "Point", "coordinates": [-83.044642, 42.328781]}},{"type":"Feature","properties": {"InitiativeTitle": "TIGER Grants","LocationDisplay": "Main Street to Main Street Multimodal Connector","NumberOfProjects": 1,"id": 689},"popupTemplate": "<strong>{InitiativeTitle}</strong><BR>{LocationDisplay}","geometry":{"type": "Point", "coordinates": [-90.058907, 35.130532]}},{"type":"Feature","properties": {"InitiativeTitle": "TIGER Grants","LocationDisplay": "Makah Tribe Oil Spill Response Access Dock Plan","NumberOfProjects": 1,"id": 826},"popupTemplate": "<strong>{InitiativeTitle}</strong><BR>{LocationDisplay}","geometry":{"type": "Point", "coordinates": [-124.61575, 48.36605]}},{"type":"Feature","properties": {"InitiativeTitle": "TIGER Grants","LocationDisplay": "Martin Memorial Bridge Replacement","NumberOfProjects": 1,"id": 690},"popupTemplate": "<strong>{InitiativeTitle}</strong><BR>{LocationDisplay}","geometry":{"type": "Point", "coordinates": [-69.784755, 44.091658]}},{"type":"Feature","properties": {"InitiativeTitle": "TIGER Grants","LocationDisplay": "Mayfield Transit Station","NumberOfProjects": 1,"id": 651},"popupTemplate": "<strong>{InitiativeTitle}</strong><BR>{LocationDisplay}","geometry":{"type": "Point", "coordinates": [-81.552533, 41.520192]}},{"type":"Feature","properties": {"InitiativeTitle": "TIGER Grants","LocationDisplay": "Meadowlands Adaptive Signal System","NumberOfProjects": 1,"id": 564},"popupTemplate": "<strong>{InitiativeTitle}</strong><BR>{LocationDisplay}","geometry":{"type": "Point", "coordinates": [-74.062813, 40.820045]}},{"type":"Feature","properties": {"InitiativeTitle": "TIGER Grants","LocationDisplay": "Memorial Bridge Replacement (Portsmouth, NH to Kittery, ME)","NumberOfProjects": 1,"id": 583},"popupTemplate": "<strong>{InitiativeTitle}</strong><BR>{LocationDisplay}","geometry":{"type": "Point", "coordinates": [-70.753697, 43.082681]}},{"type":"Feature","properties": {"InitiativeTitle": "TIGER Grants","LocationDisplay": "Mercer Corridor Redevelopment","NumberOfProjects": 1,"id": 531},"popupTemplate": "<strong>{InitiativeTitle}</strong><BR>{LocationDisplay}","geometry":{"type": "Point", "coordinates": [-122.332613, 47.608759]}},{"type":"Feature","properties": {"InitiativeTitle": "TIGER Grants","LocationDisplay": "Mercer Corridor West Reconstruction","NumberOfProjects": 1,"id": 691},"popupTemplate": "<strong>{InitiativeTitle}</strong><BR>{LocationDisplay}","geometry":{"type": "Point", "coordinates": [-122.351138, 47.621871]}},{"type":"Feature","properties": {"InitiativeTitle": "TIGER Grants","LocationDisplay": "Merrimack River Bridge Rehabilitation","NumberOfProjects": 1,"id": 640},"popupTemplate": "<strong>{InitiativeTitle}</strong><BR>{LocationDisplay}","geometry":{"type": "Point", "coordinates": [-71.075264, 42.777136]}},{"type":"Feature","properties": {"InitiativeTitle": "TIGER Grants","LocationDisplay": "Millwork District Complete Streets Improvements","NumberOfProjects": 1,"id": 500},"popupTemplate": "<strong>{InitiativeTitle}</strong><BR>{LocationDisplay}","geometry":{"type": "Point", "coordinates": [-90.665565, 42.494395]}},{"type":"Feature","properties": {"InitiativeTitle": "TIGER Grants","LocationDisplay": "Milton-Madison Bridge Replacement (KY and IN)","NumberOfProjects": 1,"id": 515},"popupTemplate": "<strong>{InitiativeTitle}</strong><BR>{LocationDisplay}","geometry":{"type": "Point", "coordinates": [-85.370541, 38.729677]}},{"type":"Feature","properties": {"InitiativeTitle": "TIGER Grants","LocationDisplay": "Minneapolis Transit Interchange Construction","NumberOfProjects": 1,"id": 641},"popupTemplate": "<strong>{InitiativeTitle}</strong><BR>{LocationDisplay}","geometry":{"type": "Point", "coordinates": [-93.277676, 44.981698]}},{"type":"Feature","properties": {"InitiativeTitle": "TIGER Grants","LocationDisplay": "Minnesota Rural Roads ITS","NumberOfProjects": 1,"id": 736},"popupTemplate": "<strong>{InitiativeTitle}</strong><BR>{LocationDisplay}","geometry":{"type": "Point", "coordinates": [-94.40139, 46.350664]}},{"type":"Feature","properties": {"InitiativeTitle": "TIGER Grants","LocationDisplay": "Minot Grade Separation","NumberOfProjects": 1,"id": 574},"popupTemplate": "<strong>{InitiativeTitle}</strong><BR>{LocationDisplay}","geometry":{"type": "Point", "coordinates": [-101.296402, 48.235879]}},{"type":"Feature","properties": {"InitiativeTitle": "TIGER Grants","LocationDisplay": "Mission Bay / UCSF Hospital Multimodal Transportation Infrastructure","NumberOfProjects": 1,"id": 692},"popupTemplate": "<strong>{InitiativeTitle}</strong><BR>{LocationDisplay}","geometry":{"type": "Point", "coordinates": [-122.388659, 37.774389]}},{"type":"Feature","properties": {"InitiativeTitle": "TIGER Grants","LocationDisplay": "Mississippi River Bridges ITS","NumberOfProjects": 1,"id": 633},"popupTemplate": "<strong>{InitiativeTitle}</strong><BR>{LocationDisplay}","geometry":{"type": "Point", "coordinates": [-91.165657, 33.002588]}},{"type":"Feature","properties": {"InitiativeTitle": "TIGER Grants","LocationDisplay": "Missoula to Lolo Trail","NumberOfProjects": 1,"id": 737},"popupTemplate": "<strong>{InitiativeTitle}</strong><BR>{LocationDisplay}","geometry":{"type": "Point", "coordinates": [-114.068668, 46.826845]}},{"type":"Feature","properties": {"InitiativeTitle": "TIGER Grants","LocationDisplay": "Moline Multimodal Station","NumberOfProjects": 1,"id": 560},"popupTemplate": "<strong>{InitiativeTitle}</strong><BR>{LocationDisplay}","geometry":{"type": "Point", "coordinates": [-90.515724, 41.513719]}},{"type":"Feature","properties": {"InitiativeTitle": "TIGER Grants","LocationDisplay": "Monroe County Bridge Replacement","NumberOfProjects": 1,"id": 693},"popupTemplate": "<strong>{InitiativeTitle}</strong><BR>{LocationDisplay}","geometry":{"type": "Point", "coordinates": [-86.651567, 39.298441]}},{"type":"Feature","properties": {"InitiativeTitle": "TIGER Grants","LocationDisplay": "Moscow Intermodal Transit Center","NumberOfProjects": 1,"id": 550},"popupTemplate": "<strong>{InitiativeTitle}</strong><BR>{LocationDisplay}","geometry":{"type": "Point", "coordinates": [-117.000816, 46.736214]}},{"type":"Feature","properties": {"InitiativeTitle": "TIGER Grants","LocationDisplay": "Mountain Parkway Extension","NumberOfProjects": 1,"id": 782},"popupTemplate": "<strong>{InitiativeTitle}</strong><BR>{LocationDisplay}","geometry":{"type": "Point", "coordinates": [-82.993813, 37.728638]}},{"type":"Feature","properties": {"InitiativeTitle": "TIGER Grants","LocationDisplay": "Moving Central Texas","NumberOfProjects": 1,"id": 738},"popupTemplate": "<strong>{InitiativeTitle}</strong><BR>{LocationDisplay}","geometry":{"type": "Point", "coordinates": [-97.735085, 30.284647]}},{"type":"Feature","properties": {"InitiativeTitle": "TIGER Grants","LocationDisplay": "Moynihan Station, Phase 1","NumberOfProjects": 1,"id": 544},"popupTemplate": "<strong>{InitiativeTitle}</strong><BR>{LocationDisplay}","geometry":{"type": "Point", "coordinates": [-73.993584, 40.750564]}},{"type":"Feature","properties": {"InitiativeTitle": "TIGER Grants","LocationDisplay": "MRC Railroad Reconstruction","NumberOfProjects": 1,"id": 783},"popupTemplate": "<strong>{InitiativeTitle}</strong><BR>{LocationDisplay}","geometry":{"type": "Point", "coordinates": [-99.745784, 43.876114]}},{"type":"Feature","properties": {"InitiativeTitle": "TIGER Grants","LocationDisplay": "Muldraugh Bridges Replacement","NumberOfProjects": 1,"id": 648},"popupTemplate": "<strong>{InitiativeTitle}</strong><BR>{LocationDisplay}","geometry":{"type": "Point", "coordinates": [-85.990914, 37.936736]}},{"type":"Feature","properties": {"InitiativeTitle": "TIGER Grants","LocationDisplay": "Multimodal Corridor Enhancement Project","NumberOfProjects": 1,"id": 784},"popupTemplate": "<strong>{InitiativeTitle}</strong><BR>{LocationDisplay}","geometry":{"type": "Point", "coordinates": [-88.228798, 40.110277]}},{"type":"Feature","properties": {"InitiativeTitle": "TIGER Grants","LocationDisplay": "Muskegon Rural Bus Service","NumberOfProjects": 1,"id": 694},"popupTemplate": "<strong>{InitiativeTitle}</strong><BR>{LocationDisplay}","geometry":{"type": "Point", "coordinates": [-86.24629, 43.233894]}},{"type":"Feature","properties": {"InitiativeTitle": "TIGER Grants","LocationDisplay": "Nashville Transit Signal Priority System","NumberOfProjects": 1,"id": 739},"popupTemplate": "<strong>{InitiativeTitle}</strong><BR>{LocationDisplay}","geometry":{"type": "Point", "coordinates": [-86.777959, 36.166308]}},{"type":"Feature","properties": {"InitiativeTitle": "TIGER Grants","LocationDisplay": "National Gateway Freight Rail Corridor (OH, PA, WV, MD)","NumberOfProjects": 1,"id": 545},"popupTemplate": "<strong>{InitiativeTitle}</strong><BR>{LocationDisplay}","geometry":{"type": "Point", "coordinates": [-79.144435, 39.619393]}},{"type":"Feature","properties": {"InitiativeTitle": "TIGER Grants","LocationDisplay": "New England Central Railroad Freight Rail Project","NumberOfProjects": 1,"id": 785},"popupTemplate": "<strong>{InitiativeTitle}</strong><BR>{LocationDisplay}","geometry":{"type": "Point", "coordinates": [-72.166185, 41.64367]}},{"type":"Feature","properties": {"InitiativeTitle": "TIGER Grants","LocationDisplay": "New Hampshire Northcoast Rail Corridor Improvements","NumberOfProjects": 1,"id": 740},"popupTemplate": "<strong>{InitiativeTitle}</strong><BR>{LocationDisplay}","geometry":{"type": "Point", "coordinates": [-71.084247, 43.427072]}},{"type":"Feature","properties": {"InitiativeTitle": "TIGER Grants","LocationDisplay": "New Haven Downtown Crossing and Urban Boulevard","NumberOfProjects": 1,"id": 577},"popupTemplate": "<strong>{InitiativeTitle}</strong><BR>{LocationDisplay}","geometry":{"type": "Point", "coordinates": [-72.929016, 41.315723]}},{"type":"Feature","properties": {"InitiativeTitle": "TIGER Grants","LocationDisplay": "New Orleans Streetcar - Union Passenger Terminal/Loyola Loop","NumberOfProjects": 1,"id": 537},"popupTemplate": "<strong>{InitiativeTitle}</strong><BR>{LocationDisplay}","geometry":{"type": "Point", "coordinates": [-90.088191, 29.942981]}},{"type":"Feature","properties": {"InitiativeTitle": "TIGER Grants","LocationDisplay": "New River Parkway","NumberOfProjects": 1,"id": 786},"popupTemplate": "<strong>{InitiativeTitle}</strong><BR>{LocationDisplay}","geometry":{"type": "Point", "coordinates": [-81.156499, 37.927291]}},{"type":"Feature","properties": {"InitiativeTitle": "TIGER Grants","LocationDisplay": "New Route 47 Missouri River Bridge Project","NumberOfProjects": 1,"id": 787},"popupTemplate": "<strong>{InitiativeTitle}</strong><BR>{LocationDisplay}","geometry":{"type": "Point", "coordinates": [-90.998125, 38.558234]}},{"type":"Feature","properties": {"InitiativeTitle": "TIGER Grants","LocationDisplay": "Newark Regional Transportation Center","NumberOfProjects": 1,"id": 695},"popupTemplate": "<strong>{InitiativeTitle}</strong><BR>{LocationDisplay}","geometry":{"type": "Point", "coordinates": [-75.751934, 39.679409]}},{"type":"Feature","properties": {"InitiativeTitle": "TIGER Grants","LocationDisplay": "Newark Train Station Improvement Plan","NumberOfProjects": 1,"id": 620},"popupTemplate": "<strong>{InitiativeTitle}</strong><BR>{LocationDisplay}","geometry":{"type": "Point", "coordinates": [-75.752037, 39.679955]}},{"type":"Feature","properties": {"InitiativeTitle": "TIGER Grants","LocationDisplay": "Niagara Falls Rail Station","NumberOfProjects": 1,"id": 580},"popupTemplate": "<strong>{InitiativeTitle}</strong><BR>{LocationDisplay}","geometry":{"type": "Point", "coordinates": [-79.033005, 43.098977]}},{"type":"Feature","properties": {"InitiativeTitle": "TIGER Grants","LocationDisplay": "Nicholson Corridor High Capacity Transit System Plan","NumberOfProjects": 1,"id": 827},"popupTemplate": "<strong>{InitiativeTitle}</strong><BR>{LocationDisplay}","geometry":{"type": "Point", "coordinates": [-91.17588, 30.482557]}},{"type":"Feature","properties": {"InitiativeTitle": "TIGER Grants","LocationDisplay": "Norfolk International Terminals","NumberOfProjects": 1,"id": 788},"popupTemplate": "<strong>{InitiativeTitle}</strong><BR>{LocationDisplay}","geometry":{"type": "Point", "coordinates": [-76.326787, 36.931484]}},{"type":"Feature","properties": {"InitiativeTitle": "TIGER Grants","LocationDisplay": "Normal Multimodal Transportation Center","NumberOfProjects": 1,"id": 522},"popupTemplate": "<strong>{InitiativeTitle}</strong><BR>{LocationDisplay}","geometry":{"type": "Point", "coordinates": [-89.002381, 40.507686]}},{"type":"Feature","properties": {"InitiativeTitle": "TIGER Grants","LocationDisplay": "North Spokane Corridor Railroad Realignment","NumberOfProjects": 1,"id": 696},"popupTemplate": "<strong>{InitiativeTitle}</strong><BR>{LocationDisplay}","geometry":{"type": "Point", "coordinates": [-117.365428, 47.760957]}},{"type":"Feature","properties": {"InitiativeTitle": "TIGER Grants","LocationDisplay": "Northeast Iowa's Livable Rural Communities","NumberOfProjects": 1,"id": 741},"popupTemplate": "<strong>{InitiativeTitle}</strong><BR>{LocationDisplay}","geometry":{"type": "Point", "coordinates": [-91.739608, 43.301889]}},{"type":"Feature","properties": {"InitiativeTitle": "TIGER Grants","LocationDisplay": "Northern Montana Multimodal Hub","NumberOfProjects": 1,"id": 634},"popupTemplate": "<strong>{InitiativeTitle}</strong><BR>{LocationDisplay}","geometry":{"type": "Point", "coordinates": [-111.850684, 48.4983]}},{"type":"Feature","properties": {"InitiativeTitle": "TIGER Grants","LocationDisplay": "Northern Vermont Freight Rail Project","NumberOfProjects": 1,"id": 697},"popupTemplate": "<strong>{InitiativeTitle}</strong><BR>{LocationDisplay}","geometry":{"type": "Point", "coordinates": [-73.083517, 44.810373]}},{"type":"Feature","properties": {"InitiativeTitle": "TIGER Grants","LocationDisplay": "Northfield Multimodal Integration","NumberOfProjects": 1,"id": 623},"popupTemplate": "<strong>{InitiativeTitle}</strong><BR>{LocationDisplay}","geometry":{"type": "Point", "coordinates": [-93.169384, 44.449661]}},{"type":"Feature","properties": {"InitiativeTitle": "TIGER Grants","LocationDisplay": "Northgate Transfer Center","NumberOfProjects": 1,"id": 742},"popupTemplate": "<strong>{InitiativeTitle}</strong><BR>{LocationDisplay}","geometry":{"type": "Point", "coordinates": [-106.42162, 31.877022]}},{"type":"Feature","properties": {"InitiativeTitle": "TIGER Grants","LocationDisplay": "Northwest Tennessee Port (Lake County)","NumberOfProjects": 1,"id": 571},"popupTemplate": "<strong>{InitiativeTitle}</strong><BR>{LocationDisplay}","geometry":{"type": "Point", "coordinates": [-89.424519, 36.458086]}},{"type":"Feature","properties": {"InitiativeTitle": "TIGER Grants","LocationDisplay": "Nueces River Rail Yard Expansion","NumberOfProjects": 1,"id": 698},"popupTemplate": "<strong>{InitiativeTitle}</strong><BR>{LocationDisplay}","geometry":{"type": "Point", "coordinates": [-97.402081, 27.810028]}},{"type":"Feature","properties": {"InitiativeTitle": "TIGER Grants","LocationDisplay": "Oakland Army Base Infrastructure Master Plan","NumberOfProjects": 1,"id": 619},"popupTemplate": "<strong>{InitiativeTitle}</strong><BR>{LocationDisplay}","geometry":{"type": "Point", "coordinates": [-122.272488, 37.804215]}},{"type":"Feature","properties": {"InitiativeTitle": "TIGER Grants","LocationDisplay": "OKC Intermodal Transportation Hub","NumberOfProjects": 1,"id": 743},"popupTemplate": "<strong>{InitiativeTitle}</strong><BR>{LocationDisplay}","geometry":{"type": "Point", "coordinates": [-97.501153, 35.421551]}},{"type":"Feature","properties": {"InitiativeTitle": "TIGER Grants","LocationDisplay": "Oklahoma Freight Rail Upgrade","NumberOfProjects": 1,"id": 631},"popupTemplate": "<strong>{InitiativeTitle}</strong><BR>{LocationDisplay}","geometry":{"type": "Point", "coordinates": [-99.551624, 34.809791]}},{"type":"Feature","properties": {"InitiativeTitle": "TIGER Grants","LocationDisplay": "Otay Mesa Port-of-Entry I-805/SR-905 Interchange","NumberOfProjects": 1,"id": 519},"popupTemplate": "<strong>{InitiativeTitle}</strong><BR>{LocationDisplay}","geometry":{"type": "Point", "coordinates": [-117.040572, 32.567884]}},{"type":"Feature","properties": {"InitiativeTitle": "TIGER Grants","LocationDisplay": "Owasco River Multi-modal Trail Corridor Plan","NumberOfProjects": 1,"id": 602},"popupTemplate": "<strong>{InitiativeTitle}</strong><BR>{LocationDisplay}","geometry":{"type": "Point", "coordinates": [-76.563507, 42.928731]}},{"type":"Feature","properties": {"InitiativeTitle": "TIGER Grants","LocationDisplay": "Pacific Surfliner Coastal Railway Bridges","NumberOfProjects": 1,"id": 744},"popupTemplate": "<strong>{InitiativeTitle}</strong><BR>{LocationDisplay}","geometry":{"type": "Point", "coordinates": [-117.25333, 32.932912]}},{"type":"Feature","properties": {"InitiativeTitle": "TIGER Grants","LocationDisplay": "Park East Corridor Lift Bridges","NumberOfProjects": 1,"id": 521},"popupTemplate": "<strong>{InitiativeTitle}</strong><BR>{LocationDisplay}","geometry":{"type": "Point", "coordinates": [-87.912804, 43.04131]}},{"type":"Feature","properties": {"InitiativeTitle": "TIGER Grants","LocationDisplay": "Parkview Gardens: a Sustainable and Accessible Neighborhood","NumberOfProjects": 1,"id": 594},"popupTemplate": "<strong>{InitiativeTitle}</strong><BR>{LocationDisplay}","geometry":{"type": "Point", "coordinates": [-90.310115, 38.656337]}},{"type":"Feature","properties": {"InitiativeTitle": "TIGER Grants","LocationDisplay": "Parramore Bus Rapid Transit","NumberOfProjects": 1,"id": 561},"popupTemplate": "<strong>{InitiativeTitle}</strong><BR>{LocationDisplay}","geometry":{"type": "Point", "coordinates": [-81.391789, 28.537971]}},{"type":"Feature","properties": {"InitiativeTitle": "TIGER Grants","LocationDisplay": "Pelican Point Road Project","NumberOfProjects": 1,"id": 745},"popupTemplate": "<strong>{InitiativeTitle}</strong><BR>{LocationDisplay}","geometry":{"type": "Point", "coordinates": [-119.367973, 39.827306]}},{"type":"Feature","properties": {"InitiativeTitle": "TIGER Grants","LocationDisplay": "Philadelphia Area Pedestrian and Bicycle Network (PA and NJ)","NumberOfProjects": 1,"id": 525},"popupTemplate": "<strong>{InitiativeTitle}</strong><BR>{LocationDisplay}","geometry":{"type": "Point", "coordinates": [-75.163483, 39.952344]}},{"type":"Feature","properties": {"InitiativeTitle": "TIGER Grants","LocationDisplay": "Pickaway East West Connector Road","NumberOfProjects": 1,"id": 699},"popupTemplate": "<strong>{InitiativeTitle}</strong><BR>{LocationDisplay}","geometry":{"type": "Point", "coordinates": [-82.989014, 39.772307]}},{"type":"Feature","properties": {"InitiativeTitle": "TIGER Grants","LocationDisplay": "Poplar Airport Redevelopment and Regional Access Project","NumberOfProjects": 1,"id": 828},"popupTemplate": "<strong>{InitiativeTitle}</strong><BR>{LocationDisplay}","geometry":{"type": "Point", "coordinates": [-105.184371, 48.115701]}},{"type":"Feature","properties": {"InitiativeTitle": "TIGER Grants","LocationDisplay": "Port Manatee Marine Highway","NumberOfProjects": 1,"id": 556},"popupTemplate": "<strong>{InitiativeTitle}</strong><BR>{LocationDisplay}","geometry":{"type": "Point", "coordinates": [-82.551125, 27.636699]}},{"type":"Feature","properties": {"InitiativeTitle": "TIGER Grants","LocationDisplay": "Port Newark Container Terminal Access Improvement and Expansion Project","NumberOfProjects": 1,"id": 789},"popupTemplate": "<strong>{InitiativeTitle}</strong><BR>{LocationDisplay}","geometry":{"type": "Point", "coordinates": [-74.151535, 40.694045]}},{"type":"Feature","properties": {"InitiativeTitle": "TIGER Grants","LocationDisplay": "Port of Baltimore Enhancements","NumberOfProjects": 1,"id": 746},"popupTemplate": "<strong>{InitiativeTitle}</strong><BR>{LocationDisplay}","geometry":{"type": "Point", "coordinates": [-76.557445, 39.245908]}},{"type":"Feature","properties": {"InitiativeTitle": "TIGER Grants","LocationDisplay": "Port of Catoosa Main Dock Rehabilitation","NumberOfProjects": 1,"id": 700},"popupTemplate": "<strong>{InitiativeTitle}</strong><BR>{LocationDisplay}","geometry":{"type": "Point", "coordinates": [-95.726373, 36.221781]}},{"type":"Feature","properties": {"InitiativeTitle": "TIGER Grants","LocationDisplay": "Port of Duluth Intermodal","NumberOfProjects": 1,"id": 747},"popupTemplate": "<strong>{InitiativeTitle}</strong><BR>{LocationDisplay}","geometry":{"type": "Point", "coordinates": [-92.102441, 46.760453]}},{"type":"Feature","properties": {"InitiativeTitle": "TIGER Grants","LocationDisplay": "Port of Garibaldi Wharf Revitalization","NumberOfProjects": 1,"id": 748},"popupTemplate": "<strong>{InitiativeTitle}</strong><BR>{LocationDisplay}","geometry":{"type": "Point", "coordinates": [-123.913722, 45.554573]}},{"type":"Feature","properties": {"InitiativeTitle": "TIGER Grants","LocationDisplay": "Port of Gulfport Rail Improvements","NumberOfProjects": 1,"id": 516},"popupTemplate": "<strong>{InitiativeTitle}</strong><BR>{LocationDisplay}","geometry":{"type": "Point", "coordinates": [-89.097362, 30.37756]}},{"type":"Feature","properties": {"InitiativeTitle": "TIGER Grants","LocationDisplay": "Port of Houston: Bayport Wharf Improvements","NumberOfProjects": 1,"id": 749},"popupTemplate": "<strong>{InitiativeTitle}</strong><BR>{LocationDisplay}","geometry":{"type": "Point", "coordinates": [-94.974169, 29.681732]}},{"type":"Feature","properties": {"InitiativeTitle": "TIGER Grants","LocationDisplay": "Port of Lewiston Dock Extension","NumberOfProjects": 1,"id": 701},"popupTemplate": "<strong>{InitiativeTitle}</strong><BR>{LocationDisplay}","geometry":{"type": "Point", "coordinates": [-117.016991, 46.418604]}},{"type":"Feature","properties": {"InitiativeTitle": "TIGER Grants","LocationDisplay": "Port of Long Beach Rail Realignment","NumberOfProjects": 1,"id": 660},"popupTemplate": "<strong>{InitiativeTitle}</strong><BR>{LocationDisplay}","geometry":{"type": "Point", "coordinates": [-118.20265, 33.757373]}},{"type":"Feature","properties": {"InitiativeTitle": "TIGER Grants","LocationDisplay": "Port of Los Angeles: West Basin Railyard","NumberOfProjects": 1,"id": 578},"popupTemplate": "<strong>{InitiativeTitle}</strong><BR>{LocationDisplay}","geometry":{"type": "Point", "coordinates": [-118.262544, 33.797409]}},{"type":"Feature","properties": {"InitiativeTitle": "TIGER Grants","LocationDisplay": "Port of Miami Rail Access","NumberOfProjects": 1,"id": 584},"popupTemplate": "<strong>{InitiativeTitle}</strong><BR>{LocationDisplay}","geometry":{"type": "Point", "coordinates": [-80.162601, 25.908644]}},{"type":"Feature","properties": {"InitiativeTitle": "TIGER Grants","LocationDisplay": "Port of New Orleans Rail Yard Improvements","NumberOfProjects": 1,"id": 659},"popupTemplate": "<strong>{InitiativeTitle}</strong><BR>{LocationDisplay}","geometry":{"type": "Point", "coordinates": [-90.025049, 29.99061]}},{"type":"Feature","properties": {"InitiativeTitle": "TIGER Grants","LocationDisplay": "Port of Oakland Intermodal Rail Improvements","NumberOfProjects": 1,"id": 702},"popupTemplate": "<strong>{InitiativeTitle}</strong><BR>{LocationDisplay}","geometry":{"type": "Point", "coordinates": [-122.313721, 37.797528]}},{"type":"Feature","properties": {"InitiativeTitle": "TIGER Grants","LocationDisplay": "Port of Oswego: East Terminal Intermodal Connector","NumberOfProjects": 1,"id": 750},"popupTemplate": "<strong>{InitiativeTitle}</strong><BR>{LocationDisplay}","geometry":{"type": "Point", "coordinates": [-76.510849, 43.465306]}},{"type":"Feature","properties": {"InitiativeTitle": "TIGER Grants","LocationDisplay": "Port of Pascagoula Intermodal Improvements","NumberOfProjects": 1,"id": 751},"popupTemplate": "<strong>{InitiativeTitle}</strong><BR>{LocationDisplay}","geometry":{"type": "Point", "coordinates": [-88.567962, 30.359679]}},{"type":"Feature","properties": {"InitiativeTitle": "TIGER Grants","LocationDisplay": "Port of Providence: Electric Cranes","NumberOfProjects": 1,"id": 567},"popupTemplate": "<strong>{InitiativeTitle}</strong><BR>{LocationDisplay}","geometry":{"type": "Point", "coordinates": [-71.390217, 41.795888]}},{"type":"Feature","properties": {"InitiativeTitle": "TIGER Grants","LocationDisplay": "Port of Seattle Terminal 46 Rehabilitation Project","NumberOfProjects": 1,"id": 790},"popupTemplate": "<strong>{InitiativeTitle}</strong><BR>{LocationDisplay}","geometry":{"type": "Point", "coordinates": [-122.340668, 47.595753]}},{"type":"Feature","properties": {"InitiativeTitle": "TIGER Grants","LocationDisplay": "Port of Tucson: Container Export Rail Facility","NumberOfProjects": 1,"id": 752},"popupTemplate": "<strong>{InitiativeTitle}</strong><BR>{LocationDisplay}","geometry":{"type": "Point", "coordinates": [-110.843327, 32.129379]}},{"type":"Feature","properties": {"InitiativeTitle": "TIGER Grants","LocationDisplay": "Portland's Innovation Quadrant - SW Moody St. and Streetcar Reconstruction","NumberOfProjects": 1,"id": 526},"popupTemplate": "<strong>{InitiativeTitle}</strong><BR>{LocationDisplay}","geometry":{"type": "Point", "coordinates": [-122.680545, 45.517328]}},{"type":"Feature","properties": {"InitiativeTitle": "TIGER Grants","LocationDisplay": "Prichard Intermodal Facility","NumberOfProjects": 1,"id": 649},"popupTemplate": "<strong>{InitiativeTitle}</strong><BR>{LocationDisplay}","geometry":{"type": "Point", "coordinates": [-82.59747, 38.243824]}},{"type":"Feature","properties": {"InitiativeTitle": "TIGER Grants","LocationDisplay": "Priority Bus Transit in the Capital Region (DC, VA, MD)","NumberOfProjects": 1,"id": 542},"popupTemplate": "<strong>{InitiativeTitle}</strong><BR>{LocationDisplay}","geometry":{"type": "Point", "coordinates": [-77.012057, 38.882432]}},{"type":"Feature","properties": {"InitiativeTitle": "TIGER Grants","LocationDisplay": "Providence Station Transit Center Plan","NumberOfProjects": 1,"id": 829},"popupTemplate": "<strong>{InitiativeTitle}</strong><BR>{LocationDisplay}","geometry":{"type": "Point", "coordinates": [-71.41351, 41.82949]}},{"type":"Feature","properties": {"InitiativeTitle": "TIGER Grants","LocationDisplay": "Providence Streetcar","NumberOfProjects": 1,"id": 791},"popupTemplate": "<strong>{InitiativeTitle}</strong><BR>{LocationDisplay}","geometry":{"type": "Point", "coordinates": [-71.411075, 41.825052]}},{"type":"Feature","properties": {"InitiativeTitle": "TIGER Grants","LocationDisplay": "Quonset Wind Energy and Surface Transportation Project","NumberOfProjects": 1,"id": 523},"popupTemplate": "<strong>{InitiativeTitle}</strong><BR>{LocationDisplay}","geometry":{"type": "Point", "coordinates": [-71.450648, 41.566055]}},{"type":"Feature","properties": {"InitiativeTitle": "TIGER Grants","LocationDisplay": "Railroad Corridor Highway Crossing Plan","NumberOfProjects": 1,"id": 830},"popupTemplate": "<strong>{InitiativeTitle}</strong><BR>{LocationDisplay}","geometry":{"type": "Point", "coordinates": [-90.651326, 35.815134]}},{"type":"Feature","properties": {"InitiativeTitle": "TIGER Grants","LocationDisplay": "Raleigh Union Station Phase 1B","NumberOfProjects": 1,"id": 753},"popupTemplate": "<strong>{InitiativeTitle}</strong><BR>{LocationDisplay}","geometry":{"type": "Point", "coordinates": [-78.64267, 35.785511]}},{"type":"Feature","properties": {"InitiativeTitle": "TIGER Grants","LocationDisplay": "Raleigh Union Station Phase I","NumberOfProjects": 1,"id": 703},"popupTemplate": "<strong>{InitiativeTitle}</strong><BR>{LocationDisplay}","geometry":{"type": "Point", "coordinates": [-78.646197, 35.77528]}},{"type":"Feature","properties": {"InitiativeTitle": "TIGER Grants","LocationDisplay": "Randolph County Housing and Transportation Plan","NumberOfProjects": 1,"id": 590},"popupTemplate": "<strong>{InitiativeTitle}</strong><BR>{LocationDisplay}","geometry":{"type": "Point", "coordinates": [-79.84655, 38.923485]}},{"type":"Feature","properties": {"InitiativeTitle": "TIGER Grants","LocationDisplay": "Ranson-Charles Town Corridor Revitalization","NumberOfProjects": 1,"id": 604},"popupTemplate": "<strong>{InitiativeTitle}</strong><BR>{LocationDisplay}","geometry":{"type": "Point", "coordinates": [-77.86232, 39.298709]}},{"type":"Feature","properties": {"InitiativeTitle": "TIGER Grants","LocationDisplay": "Ranson-Charles Town Green Corridor Revitalization","NumberOfProjects": 1,"id": 704},"popupTemplate": "<strong>{InitiativeTitle}</strong><BR>{LocationDisplay}","geometry":{"type": "Point", "coordinates": [-77.86231, 39.298901]}},{"type":"Feature","properties": {"InitiativeTitle": "TIGER Grants","LocationDisplay": "Razorback Regional Bike/Ped Greenway (Benton and Washington Counties)","NumberOfProjects": 1,"id": 576},"popupTemplate": "<strong>{InitiativeTitle}</strong><BR>{LocationDisplay}","geometry":{"type": "Point", "coordinates": [-94.211304, 36.376515]}},{"type":"Feature","properties": {"InitiativeTitle": "TIGER Grants","LocationDisplay": "Reconstruct Mitchell-Rapid City Railroad","NumberOfProjects": 1,"id": 579},"popupTemplate": "<strong>{InitiativeTitle}</strong><BR>{LocationDisplay}","geometry":{"type": "Point", "coordinates": [-99.307137, 43.969098]}},{"type":"Feature","properties": {"InitiativeTitle": "TIGER Grants","LocationDisplay": "Reconstruction of Pier 29 in Honolulu Harbor","NumberOfProjects": 1,"id": 527},"popupTemplate": "<strong>{InitiativeTitle}</strong><BR>{LocationDisplay}","geometry":{"type": "Point", "coordinates": [-157.884049, 21.317464]}},{"type":"Feature","properties": {"InitiativeTitle": "TIGER Grants","LocationDisplay": "Regional Active Transportation Management (ATM)","NumberOfProjects": 1,"id": 792},"popupTemplate": "<strong>{InitiativeTitle}</strong><BR>{LocationDisplay}","geometry":{"type": "Point", "coordinates": [-122.76947, 45.506828]}},{"type":"Feature","properties": {"InitiativeTitle": "TIGER Grants","LocationDisplay": "Rehabilitation of Wharf Unit 1 (Berths 5/6)","NumberOfProjects": 1,"id": 754},"popupTemplate": "<strong>{InitiativeTitle}</strong><BR>{LocationDisplay}","geometry":{"type": "Point", "coordinates": [-75.523509, 39.71622]}},{"type":"Feature","properties": {"InitiativeTitle": "TIGER Grants","LocationDisplay": "Restoring Pathways to Economic Opportunities","NumberOfProjects": 1,"id": 831},"popupTemplate": "<strong>{InitiativeTitle}</strong><BR>{LocationDisplay}","geometry":{"type": "Point", "coordinates": [-86.800232, 33.541395]}},{"type":"Feature","properties": {"InitiativeTitle": "TIGER Grants","LocationDisplay": "Revere Transit Facility and Streetscape","NumberOfProjects": 1,"id": 517},"popupTemplate": "<strong>{InitiativeTitle}</strong><BR>{LocationDisplay}","geometry":{"type": "Point", "coordinates": [-71.012901, 42.406803]}},{"type":"Feature","properties": {"InitiativeTitle": "TIGER Grants","LocationDisplay": "Revitalizing Maine's Ports","NumberOfProjects": 1,"id": 511},"popupTemplate": "<strong>{InitiativeTitle}</strong><BR>{LocationDisplay}","geometry":{"type": "Point", "coordinates": [-69.003342, 44.378059]}},{"type":"Feature","properties": {"InitiativeTitle": "TIGER Grants","LocationDisplay": "Riverside Drive/Gathering Place Multimodal Access Project","NumberOfProjects": 1,"id": 793},"popupTemplate": "<strong>{InitiativeTitle}</strong><BR>{LocationDisplay}","geometry":{"type": "Point", "coordinates": [-95.984802, 36.11881]}},{"type":"Feature","properties": {"InitiativeTitle": "TIGER Grants","LocationDisplay": "Rochester Intermodal Transportation Center","NumberOfProjects": 1,"id": 705},"popupTemplate": "<strong>{InitiativeTitle}</strong><BR>{LocationDisplay}","geometry":{"type": "Point", "coordinates": [-77.609009, 43.162745]}},{"type":"Feature","properties": {"InitiativeTitle": "TIGER Grants","LocationDisplay": "Roosevelt Boulevard Multimodal Study","NumberOfProjects": 1,"id": 832},"popupTemplate": "<strong>{InitiativeTitle}</strong><BR>{LocationDisplay}","geometry":{"type": "Point", "coordinates": [-75.05467, 40.044626]}},{"type":"Feature","properties": {"InitiativeTitle": "TIGER Grants","LocationDisplay": "Route 10 Safety Improvements","NumberOfProjects": 1,"id": 581},"popupTemplate": "<strong>{InitiativeTitle}</strong><BR>{LocationDisplay}","geometry":{"type": "Point", "coordinates": [-81.995787, 37.856965]}},{"type":"Feature","properties": {"InitiativeTitle": "TIGER Grants","LocationDisplay": "Ruggles Station Modernization","NumberOfProjects": 1,"id": 794},"popupTemplate": "<strong>{InitiativeTitle}</strong><BR>{LocationDisplay}","geometry":{"type": "Point", "coordinates": [-71.088967, 42.336802]}},{"type":"Feature","properties": {"InitiativeTitle": "TIGER Grants","LocationDisplay": "Rutherford Intermodal Facility Expansion","NumberOfProjects": 1,"id": 657},"popupTemplate": "<strong>{InitiativeTitle}</strong><BR>{LocationDisplay}","geometry":{"type": "Point", "coordinates": [-76.880508, 40.260464]}},{"type":"Feature","properties": {"InitiativeTitle": "TIGER Grants","LocationDisplay": "Sacramento Valley Station","NumberOfProjects": 1,"id": 706},"popupTemplate": "<strong>{InitiativeTitle}</strong><BR>{LocationDisplay}","geometry":{"type": "Point", "coordinates": [-121.49921, 38.583421]}},{"type":"Feature","properties": {"InitiativeTitle": "TIGER Grants","LocationDisplay": "Saddle Road Improvements","NumberOfProjects": 1,"id": 653},"popupTemplate": "<strong>{InitiativeTitle}</strong><BR>{LocationDisplay}","geometry":{"type": "Point", "coordinates": [-155.656608, 19.866844]}},{"type":"Feature","properties": {"InitiativeTitle": "TIGER Grants","LocationDisplay": "Sahara Avenue Bus Rapid Transit","NumberOfProjects": 1,"id": 534},"popupTemplate": "<strong>{InitiativeTitle}</strong><BR>{LocationDisplay}","geometry":{"type": "Point", "coordinates": [-115.125346, 36.174415]}},{"type":"Feature","properties": {"InitiativeTitle": "TIGER Grants","LocationDisplay": "Saint Paul Complete Streets Plan","NumberOfProjects": 1,"id": 596},"popupTemplate": "<strong>{InitiativeTitle}</strong><BR>{LocationDisplay}","geometry":{"type": "Point", "coordinates": [-93.09313, 44.943699]}},{"type":"Feature","properties": {"InitiativeTitle": "TIGER Grants","LocationDisplay": "Saint Paul Union Depot Multi-Modal Transit and Transportation Hub","NumberOfProjects": 1,"id": 535},"popupTemplate": "<strong>{InitiativeTitle}</strong><BR>{LocationDisplay}","geometry":{"type": "Point", "coordinates": [-93.088145, 44.93754]}},{"type":"Feature","properties": {"InitiativeTitle": "TIGER Grants","LocationDisplay": "San Francisco Bay Area Core Capacity Transit Study","NumberOfProjects": 1,"id": 833},"popupTemplate": "<strong>{InitiativeTitle}</strong><BR>{LocationDisplay}","geometry":{"type": "Point", "coordinates": [-122.407044, 37.769642]}},{"type":"Feature","properties": {"InitiativeTitle": "TIGER Grants","LocationDisplay": "Santa Theresa Border Plan","NumberOfProjects": 1,"id": 834},"popupTemplate": "<strong>{InitiativeTitle}</strong><BR>{LocationDisplay}","geometry":{"type": "Point", "coordinates": [-106.87912, 32.154687]}},{"type":"Feature","properties": {"InitiativeTitle": "TIGER Grants","LocationDisplay": "Sarah Mildred Long Bridge Project","NumberOfProjects": 1,"id": 795},"popupTemplate": "<strong>{InitiativeTitle}</strong><BR>{LocationDisplay}","geometry":{"type": "Point", "coordinates": [-70.760794, 43.086128]}},{"type":"Feature","properties": {"InitiativeTitle": "TIGER Grants","LocationDisplay": "Seamless City Revitalization Project","NumberOfProjects": 1,"id": 796},"popupTemplate": "<strong>{InitiativeTitle}</strong><BR>{LocationDisplay}","geometry":{"type": "Point", "coordinates": [-81.042363, 34.030066]}},{"type":"Feature","properties": {"InitiativeTitle": "TIGER Grants","LocationDisplay": "Sellwood Bridge Replacement??","NumberOfProjects": 1,"id": 661},"popupTemplate": "<strong>{InitiativeTitle}</strong><BR>{LocationDisplay}","geometry":{"type": "Point", "coordinates": [-122.666237, 45.464331]}},{"type":"Feature","properties": {"InitiativeTitle": "TIGER Grants","LocationDisplay": "SEPTA-CSX Separation Project","NumberOfProjects": 1,"id": 755},"popupTemplate": "<strong>{InitiativeTitle}</strong><BR>{LocationDisplay}","geometry":{"type": "Point", "coordinates": [-74.868435, 40.207472]}},{"type":"Feature","properties": {"InitiativeTitle": "TIGER Grants","LocationDisplay": "Seward Marine Terminal Expansion Plan","NumberOfProjects": 1,"id": 835},"popupTemplate": "<strong>{InitiativeTitle}</strong><BR>{LocationDisplay}","geometry":{"type": "Point", "coordinates": [-149.442558, 60.108157]}},{"type":"Feature","properties": {"InitiativeTitle": "TIGER Grants","LocationDisplay": "Sheridan Expressway Corridor","NumberOfProjects": 1,"id": 617},"popupTemplate": "<strong>{InitiativeTitle}</strong><BR>{LocationDisplay}","geometry":{"type": "Point", "coordinates": [-73.885265, 40.812332]}},{"type":"Feature","properties": {"InitiativeTitle": "TIGER Grants","LocationDisplay": "Siskiyou Summit Railroad Revitalization??","NumberOfProjects": 1,"id": 707},"popupTemplate": "<strong>{InitiativeTitle}</strong><BR>{LocationDisplay}","geometry":{"type": "Point", "coordinates": [-123.416939, 42.674893]}},{"type":"Feature","properties": {"InitiativeTitle": "TIGER Grants","LocationDisplay": "Smiths Creek Road and Bridge Reconstruction","NumberOfProjects": 1,"id": 627},"popupTemplate": "<strong>{InitiativeTitle}</strong><BR>{LocationDisplay}","geometry":{"type": "Point", "coordinates": [-82.59077, 42.917812]}},{"type":"Feature","properties": {"InitiativeTitle": "TIGER Grants","LocationDisplay": "Snake Road Improvement","NumberOfProjects": 1,"id": 628},"popupTemplate": "<strong>{InitiativeTitle}</strong><BR>{LocationDisplay}","geometry":{"type": "Point", "coordinates": [-81.031757, 26.637771]}},{"type":"Feature","properties": {"InitiativeTitle": "TIGER Grants","LocationDisplay": "Solomon Rural Rail Upgrade","NumberOfProjects": 1,"id": 630},"popupTemplate": "<strong>{InitiativeTitle}</strong><BR>{LocationDisplay}","geometry":{"type": "Point", "coordinates": [-97.288356, 39.008998]}},{"type":"Feature","properties": {"InitiativeTitle": "TIGER Grants","LocationDisplay": "South Florida Freight and Passenger Rail Enhancement","NumberOfProjects": 1,"id": 756},"popupTemplate": "<strong>{InitiativeTitle}</strong><BR>{LocationDisplay}","geometry":{"type": "Point", "coordinates": [-80.08801, 26.350433]}},{"type":"Feature","properties": {"InitiativeTitle": "TIGER Grants","LocationDisplay": "South Hudson Intermodal Facility","NumberOfProjects": 1,"id": 708},"popupTemplate": "<strong>{InitiativeTitle}</strong><BR>{LocationDisplay}","geometry":{"type": "Point", "coordinates": [-74.076852, 40.671727]}},{"type":"Feature","properties": {"InitiativeTitle": "TIGER Grants","LocationDisplay": "South Jersey Port Rail Improvements","NumberOfProjects": 1,"id": 663},"popupTemplate": "<strong>{InitiativeTitle}</strong><BR>{LocationDisplay}","geometry":{"type": "Point", "coordinates": [-75.069167, 39.9825]}},{"type":"Feature","properties": {"InitiativeTitle": "TIGER Grants","LocationDisplay": "South Link: Sea-Tac Airport to South 200th St","NumberOfProjects": 1,"id": 642},"popupTemplate": "<strong>{InitiativeTitle}</strong><BR>{LocationDisplay}","geometry":{"type": "Point", "coordinates": [-122.30745, 47.452495]}},{"type":"Feature","properties": {"InitiativeTitle": "TIGER Grants","LocationDisplay": "South Park Bridge Replacement","NumberOfProjects": 1,"id": 586},"popupTemplate": "<strong>{InitiativeTitle}</strong><BR>{LocationDisplay}","geometry":{"type": "Point", "coordinates": [-122.328751, 47.552433]}},{"type":"Feature","properties": {"InitiativeTitle": "TIGER Grants","LocationDisplay": "South Shore Commuter Railroad Realignment Study","NumberOfProjects": 1,"id": 607},"popupTemplate": "<strong>{InitiativeTitle}</strong><BR>{LocationDisplay}","geometry":{"type": "Point", "coordinates": [-86.902825, 41.718591]}},{"type":"Feature","properties": {"InitiativeTitle": "TIGER Grants","LocationDisplay": "Southeast Connector Road Project","NumberOfProjects": 1,"id": 709},"popupTemplate": "<strong>{InitiativeTitle}</strong><BR>{LocationDisplay}","geometry":{"type": "Point", "coordinates": [-93.618862, 41.582116]}},{"type":"Feature","properties": {"InitiativeTitle": "TIGER Grants","LocationDisplay": "Southwest Atlanta BeltLine Corridor Trail","NumberOfProjects": 1,"id": 757},"popupTemplate": "<strong>{InitiativeTitle}</strong><BR>{LocationDisplay}","geometry":{"type": "Point", "coordinates": [-84.424438, 33.732812]}},{"type":"Feature","properties": {"InitiativeTitle": "TIGER Grants","LocationDisplay": "Springfield Rail Improvements","NumberOfProjects": 1,"id": 758},"popupTemplate": "<strong>{InitiativeTitle}</strong><BR>{LocationDisplay}","geometry":{"type": "Point", "coordinates": [-89.649609, 39.805336]}},{"type":"Feature","properties": {"InitiativeTitle": "TIGER Grants","LocationDisplay": "St. Albans Main Street Reconstruction","NumberOfProjects": 1,"id": 624},"popupTemplate": "<strong>{InitiativeTitle}</strong><BR>{LocationDisplay}","geometry":{"type": "Point", "coordinates": [-73.083239, 44.811425]}},{"type":"Feature","properties": {"InitiativeTitle": "TIGER Grants","LocationDisplay": "St. Louis CityArchRiver Revitalization","NumberOfProjects": 1,"id": 666},"popupTemplate": "<strong>{InitiativeTitle}</strong><BR>{LocationDisplay}","geometry":{"type": "Point", "coordinates": [-90.184911, 38.624659]}},{"type":"Feature","properties": {"InitiativeTitle": "TIGER Grants","LocationDisplay": "St. Michael Community Streets","NumberOfProjects": 1,"id": 622},"popupTemplate": "<strong>{InitiativeTitle}</strong><BR>{LocationDisplay}","geometry":{"type": "Point", "coordinates": [-162.039962, 63.473327]}},{"type":"Feature","properties": {"InitiativeTitle": "TIGER Grants","LocationDisplay": "St. Paul Rail to Multimodal Corridor Plan","NumberOfProjects": 1,"id": 836},"popupTemplate": "<strong>{InitiativeTitle}</strong><BR>{LocationDisplay}","geometry":{"type": "Point", "coordinates": [-93.150072, 44.908292]}},{"type":"Feature","properties": {"InitiativeTitle": "TIGER Grants","LocationDisplay": "Stamford Intermodal Access","NumberOfProjects": 1,"id": 645},"popupTemplate": "<strong>{InitiativeTitle}</strong><BR>{LocationDisplay}","geometry":{"type": "Point", "coordinates": [-73.537283, 41.053295]}},{"type":"Feature","properties": {"InitiativeTitle": "TIGER Grants","LocationDisplay": "Staples North/South Corridor","NumberOfProjects": 1,"id": 555},"popupTemplate": "<strong>{InitiativeTitle}</strong><BR>{LocationDisplay}","geometry":{"type": "Point", "coordinates": [-94.795387, 46.359368]}},{"type":"Feature","properties": {"InitiativeTitle": "TIGER Grants","LocationDisplay": "State Route 89 Railroad Undercrossing","NumberOfProjects": 1,"id": 759},"popupTemplate": "<strong>{InitiativeTitle}</strong><BR>{LocationDisplay}","geometry":{"type": "Point", "coordinates": [-120.205606, 39.317696]}},{"type":"Feature","properties": {"InitiativeTitle": "TIGER Grants","LocationDisplay": "State Route 91 Corridor Improvements","NumberOfProjects": 1,"id": 667},"popupTemplate": "<strong>{InitiativeTitle}</strong><BR>{LocationDisplay}","geometry":{"type": "Point", "coordinates": [-117.370659, 33.9796]}},{"type":"Feature","properties": {"InitiativeTitle": "TIGER Grants","LocationDisplay": "State Street Station Expansion","NumberOfProjects": 1,"id": 760},"popupTemplate": "<strong>{InitiativeTitle}</strong><BR>{LocationDisplay}","geometry":{"type": "Point", "coordinates": [-72.921733, 41.304918]}},{"type":"Feature","properties": {"InitiativeTitle": "TIGER Grants","LocationDisplay": "State University Drive Complete Streets Project (Peach County)","NumberOfProjects": 1,"id": 549},"popupTemplate": "<strong>{InitiativeTitle}</strong><BR>{LocationDisplay}","geometry":{"type": "Point", "coordinates": [-83.898085, 32.539107]}},{"type":"Feature","properties": {"InitiativeTitle": "TIGER Grants","LocationDisplay": "Steel Point Roadway Improvements","NumberOfProjects": 1,"id": 570},"popupTemplate": "<strong>{InitiativeTitle}</strong><BR>{LocationDisplay}","geometry":{"type": "Point", "coordinates": [-73.196465, 41.194156]}},{"type":"Feature","properties": {"InitiativeTitle": "TIGER Grants","LocationDisplay": "Sugar House Streetcar - South Salt Lake City","NumberOfProjects": 1,"id": 585},"popupTemplate": "<strong>{InitiativeTitle}</strong><BR>{LocationDisplay}","geometry":{"type": "Point", "coordinates": [-111.855438, 40.720852]}},{"type":"Feature","properties": {"InitiativeTitle": "TIGER Grants","LocationDisplay": "Syracuse Connective Corridor","NumberOfProjects": 1,"id": 643},"popupTemplate": "<strong>{InitiativeTitle}</strong><BR>{LocationDisplay}","geometry":{"type": "Point", "coordinates": [-76.143652, 43.050453]}},{"type":"Feature","properties": {"InitiativeTitle": "TIGER Grants","LocationDisplay": "Tacoma Trestle Replacement","NumberOfProjects": 1,"id": 761},"popupTemplate": "<strong>{InitiativeTitle}</strong><BR>{LocationDisplay}","geometry":{"type": "Point", "coordinates": [-122.423445, 47.239885]}},{"type":"Feature","properties": {"InitiativeTitle": "TIGER Grants","LocationDisplay": "Tamiami Trail / Everglades Restoration","NumberOfProjects": 1,"id": 797},"popupTemplate": "<strong>{InitiativeTitle}</strong><BR>{LocationDisplay}","geometry":{"type": "Point", "coordinates": [-80.513306, 25.888879]}},{"type":"Feature","properties": {"InitiativeTitle": "TIGER Grants","LocationDisplay": "Tampa Downtown Multimodal Improvements","NumberOfProjects": 1,"id": 710},"popupTemplate": "<strong>{InitiativeTitle}</strong><BR>{LocationDisplay}","geometry":{"type": "Point", "coordinates": [-82.459609, 27.947055]}},{"type":"Feature","properties": {"InitiativeTitle": "TIGER Grants","LocationDisplay": "Taos Pueblo Veterans Highway","NumberOfProjects": 1,"id": 762},"popupTemplate": "<strong>{InitiativeTitle}</strong><BR>{LocationDisplay}","geometry":{"type": "Point", "coordinates": [-105.562096, 36.426721]}},{"type":"Feature","properties": {"InitiativeTitle": "TIGER Grants","LocationDisplay": "Tawa'ovi Community Streets and Infrastructure Project","NumberOfProjects": 1,"id": 798},"popupTemplate": "<strong>{InitiativeTitle}</strong><BR>{LocationDisplay}","geometry":{"type": "Point", "coordinates": [-110.494995, 35.89795]}},{"type":"Feature","properties": {"InitiativeTitle": "TIGER Grants","LocationDisplay": "Texas State Highway 161 (Grand Prairie)","NumberOfProjects": 1,"id": 518},"popupTemplate": "<strong>{InitiativeTitle}</strong><BR>{LocationDisplay}","geometry":{"type": "Point", "coordinates": [-96.961009, 32.668812]}},{"type":"Feature","properties": {"InitiativeTitle": "TIGER Grants","LocationDisplay": "The Northeastern NC Rail Improvement Project","NumberOfProjects": 1,"id": 799},"popupTemplate": "<strong>{InitiativeTitle}</strong><BR>{LocationDisplay}","geometry":{"type": "Point", "coordinates": [-77.186508, 36.541571]}},{"type":"Feature","properties": {"InitiativeTitle": "TIGER Grants","LocationDisplay": "The Piedmont Study","NumberOfProjects": 1,"id": 837},"popupTemplate": "<strong>{InitiativeTitle}</strong><BR>{LocationDisplay}","geometry":{"type": "Point", "coordinates": [-79.754376, 35.469885]}},{"type":"Feature","properties": {"InitiativeTitle": "TIGER Grants","LocationDisplay": "The Pioneer Corridor Plan","NumberOfProjects": 1,"id": 838},"popupTemplate": "<strong>{InitiativeTitle}</strong><BR>{LocationDisplay}","geometry":{"type": "Point", "coordinates": [-111.91798, 40.757164]}},{"type":"Feature","properties": {"InitiativeTitle": "TIGER Grants","LocationDisplay": "The Southwest Chief Route Improvement Project","NumberOfProjects": 1,"id": 800},"popupTemplate": "<strong>{InitiativeTitle}</strong><BR>{LocationDisplay}","geometry":{"type": "Point", "coordinates": [-97.931786, 38.055796]}},{"type":"Feature","properties": {"InitiativeTitle": "TIGER Grants","LocationDisplay": "The Southwestern Illinois Intermodal Freight Transportation Hub","NumberOfProjects": 1,"id": 502},"popupTemplate": "<strong>{InitiativeTitle}</strong><BR>{LocationDisplay}","geometry":{"type": "Point", "coordinates": [-90.153812, 38.687936]}},{"type":"Feature","properties": {"InitiativeTitle": "TIGER Grants","LocationDisplay": "Three-County Roadway Improvements Program","NumberOfProjects": 1,"id": 801},"popupTemplate": "<strong>{InitiativeTitle}</strong><BR>{LocationDisplay}","geometry":{"type": "Point", "coordinates": [-90.950317, 31.964979]}},{"type":"Feature","properties": {"InitiativeTitle": "TIGER Grants","LocationDisplay": "Torreon Road Rehabilitation","NumberOfProjects": 1,"id": 711},"popupTemplate": "<strong>{InitiativeTitle}</strong><BR>{LocationDisplay}","geometry":{"type": "Point", "coordinates": [-106.852989, 35.703622]}},{"type":"Feature","properties": {"InitiativeTitle": "TIGER Grants","LocationDisplay": "Tower 55 Freight Rail Improvements","NumberOfProjects": 1,"id": 587},"popupTemplate": "<strong>{InitiativeTitle}</strong><BR>{LocationDisplay}","geometry":{"type": "Point", "coordinates": [-97.324791, 32.752344]}},{"type":"Feature","properties": {"InitiativeTitle": "TIGER Grants","LocationDisplay": "Tucson Modern Streetcar","NumberOfProjects": 1,"id": 543},"popupTemplate": "<strong>{InitiativeTitle}</strong><BR>{LocationDisplay}","geometry":{"type": "Point", "coordinates": [-110.960823, 32.219807]}},{"type":"Feature","properties": {"InitiativeTitle": "TIGER Grants","LocationDisplay": "U.S. 17 Septima Clark Parkway","NumberOfProjects": 1,"id": 508},"popupTemplate": "<strong>{InitiativeTitle}</strong><BR>{LocationDisplay}","geometry":{"type": "Point", "coordinates": [-79.935035, 32.778264]}},{"type":"Feature","properties": {"InitiativeTitle": "TIGER Grants","LocationDisplay": "University - Cedar Rapid Transit Station Improvements","NumberOfProjects": 1,"id": 568},"popupTemplate": "<strong>{InitiativeTitle}</strong><BR>{LocationDisplay}","geometry":{"type": "Point", "coordinates": [-81.695817, 41.51012]}},{"type":"Feature","properties": {"InitiativeTitle": "TIGER Grants","LocationDisplay": "University City Prosperity Project","NumberOfProjects": 1,"id": 763},"popupTemplate": "<strong>{InitiativeTitle}</strong><BR>{LocationDisplay}","geometry":{"type": "Point", "coordinates": [-80.368607, 25.764509]}},{"type":"Feature","properties": {"InitiativeTitle": "TIGER Grants","LocationDisplay": "US 101 Smith River Safety Corridor","NumberOfProjects": 1,"id": 626},"popupTemplate": "<strong>{InitiativeTitle}</strong><BR>{LocationDisplay}","geometry":{"type": "Point", "coordinates": [-124.206449, 41.95157]}},{"type":"Feature","properties": {"InitiativeTitle": "TIGER Grants","LocationDisplay": "US-14 Underpass (Barrington)","NumberOfProjects": 1,"id": 621},"popupTemplate": "<strong>{InitiativeTitle}</strong><BR>{LocationDisplay}","geometry":{"type": "Point", "coordinates": [-88.136126, 42.154124]}},{"type":"Feature","properties": {"InitiativeTitle": "TIGER Grants","LocationDisplay": "US-36 Managed Lanes/Bus Rapid Transit","NumberOfProjects": 1,"id": 509},"popupTemplate": "<strong>{InitiativeTitle}</strong><BR>{LocationDisplay}","geometry":{"type": "Point", "coordinates": [-105.023417, 39.834856]}},{"type":"Feature","properties": {"InitiativeTitle": "TIGER Grants","LocationDisplay": "US-395 North Spokane Corridor - Francis Ave. to Farwell Rd. Southbound","NumberOfProjects": 1,"id": 536},"popupTemplate": "<strong>{InitiativeTitle}</strong><BR>{LocationDisplay}","geometry":{"type": "Point", "coordinates": [-117.359405, 47.719199]}},{"type":"Feature","properties": {"InitiativeTitle": "TIGER Grants","LocationDisplay": "US-491 Safety Improvements","NumberOfProjects": 1,"id": 532},"popupTemplate": "<strong>{InitiativeTitle}</strong><BR>{LocationDisplay}","geometry":{"type": "Point", "coordinates": [-108.273773, 36.085588]}},{"type":"Feature","properties": {"InitiativeTitle": "TIGER Grants","LocationDisplay": "US-93/2nd Street Improvements","NumberOfProjects": 1,"id": 498},"popupTemplate": "<strong>{InitiativeTitle}</strong><BR>{LocationDisplay}","geometry":{"type": "Point", "coordinates": [-114.339447, 48.407452]}},{"type":"Feature","properties": {"InitiativeTitle": "TIGER Grants","LocationDisplay": "US-95 Worley North Stage 2","NumberOfProjects": 1,"id": 802},"popupTemplate": "<strong>{InitiativeTitle}</strong><BR>{LocationDisplay}","geometry":{"type": "Point", "coordinates": [-116.916912, 47.400767]}},{"type":"Feature","properties": {"InitiativeTitle": "TIGER Grants","LocationDisplay": "Village Center Street, Transit and Infrastructure Improvement Planning Study","NumberOfProjects": 1,"id": 589},"popupTemplate": "<strong>{InitiativeTitle}</strong><BR>{LocationDisplay}","geometry":{"type": "Point", "coordinates": [-94.576153, 39.22482]}},{"type":"Feature","properties": {"InitiativeTitle": "TIGER Grants","LocationDisplay": "Vision Zero: Saving Lives and Providing Opportunity Project","NumberOfProjects": 1,"id": 803},"popupTemplate": "<strong>{InitiativeTitle}</strong><BR>{LocationDisplay}","geometry":{"type": "Point", "coordinates": [-73.952537, 40.811698]}},